Simulation/Extra/3 days simulation - min Beta/GS.txt

                                                                               3 Aug 2024 22:33:22
Satellite-NOVASAT-16U-Sensor-LargeAngle-To-Place-Haifa:  Access Summary Report


LargeAngle-To-Haifa
-------------------
                  Access        Start Time (UTCG)           Stop Time (UTCG)        Duration (sec)
                  ------    ------------------------    ------------------------    --------------
                       1    25 Jan 2026 10:13:43.605    25 Jan 2026 10:19:37.043           353.439
                       2    25 Jan 2026 11:55:49.592    25 Jan 2026 12:01:44.444           354.853
                       3    25 Jan 2026 13:36:54.899    25 Jan 2026 13:43:26.750           391.851
                       4    25 Jan 2026 15:18:06.782    25 Jan 2026 15:24:22.794           376.012
                       5    26 Jan 2026 05:15:49.217    26 Jan 2026 05:20:18.622           269.405
                       6    26 Jan 2026 06:54:19.328    26 Jan 2026 07:00:51.681           392.353
                       7    26 Jan 2026 08:35:47.183    26 Jan 2026 08:42:08.286           381.103
                       8    26 Jan 2026 10:18:18.698    26 Jan 2026 10:24:06.100           347.402
                       9    26 Jan 2026 12:00:05.233    26 Jan 2026 12:06:10.284           365.051
                      10    26 Jan 2026 13:41:02.933    26 Jan 2026 13:47:39.876           396.943
                      11    26 Jan 2026 15:22:37.558    26 Jan 2026 15:28:23.423           345.865
                      12    27 Jan 2026 05:18:45.422    27 Jan 2026 05:24:14.535           329.112
                      13    27 Jan 2026 06:58:21.179    27 Jan 2026 07:04:58.207           397.028
                      14    27 Jan 2026 08:40:18.166    27 Jan 2026 08:46:27.811           369.645
                      15    27 Jan 2026 10:22:45.391    27 Jan 2026 10:28:31.814           346.423
                      16    27 Jan 2026 12:04:12.699    27 Jan 2026 12:10:29.244           376.544
                      17    27 Jan 2026 13:45:09.491    27 Jan 2026 13:51:45.303           395.812
                      18    27 Jan 2026 15:27:24.694    27 Jan 2026 15:32:17.708           293.014
                      19    28 Jan 2026 05:22:03.875    28 Jan 2026 05:28:08.955           365.079
                      20    28 Jan 2026 07:02:30.022    28 Jan 2026 07:09:04.552           394.530
                      21    28 Jan 2026 08:44:47.622    28 Jan 2026 08:50:46.271           358.650

Statistics
----------
Min Duration           5    26 Jan 2026 05:15:49.217    26 Jan 2026 05:20:18.622           269.405
Max Duration          13    27 Jan 2026 06:58:21.179    27 Jan 2026 07:04:58.207           397.028
Mean Duration                                                                              361.910
Total Duration                                                                            7600.114
