Simulation/Extra/3 days simulation - min Beta/Inmarsat2.txt

                                                                               3 Aug 2024 22:33:54
Satellite-NOVASAT-16U-Sensor-LargeAngle-To-Satellite-Inmarsat4F3_33278:  Access Summary Report


LargeAngle-To-Inmarsat4F3_33278
-------------------------------
                  Access        Start Time (UTCG)           Stop Time (UTCG)        Duration (sec)
                  ------    ------------------------    ------------------------    --------------
                       1    25 Jan 2026 10:55:51.441    25 Jan 2026 11:26:36.246          1844.806
                       2    25 Jan 2026 12:38:13.573    25 Jan 2026 13:07:52.988          1779.415
                       3    25 Jan 2026 14:19:06.688    25 Jan 2026 14:48:35.359          1768.672
                       4    25 Jan 2026 15:59:44.315    25 Jan 2026 16:29:52.885          1808.570
                       5    25 Jan 2026 17:41:22.689    25 Jan 2026 18:13:14.640          1911.951
                       6    25 Jan 2026 19:26:02.903    25 Jan 2026 19:59:47.195          2024.292
                       7    25 Jan 2026 21:13:28.175    25 Jan 2026 21:45:55.364          1947.189
                       8    25 Jan 2026 22:58:25.937    25 Jan 2026 23:28:50.669          1824.732
                       9    26 Jan 2026 00:40:30.035    26 Jan 2026 01:09:57.238          1767.203
                      10    26 Jan 2026 02:21:16.212    26 Jan 2026 02:50:39.389          1763.177
                      11    26 Jan 2026 04:01:56.158    26 Jan 2026 04:32:06.945          1810.787
                      12    26 Jan 2026 05:43:49.976    26 Jan 2026 06:15:53.183          1923.207
                      13    26 Jan 2026 07:28:59.279    26 Jan 2026 08:02:43.244          2023.965
                      14    26 Jan 2026 09:16:15.601    26 Jan 2026 09:48:28.352          1932.751
                      15    26 Jan 2026 11:00:43.160    26 Jan 2026 11:31:03.681          1820.521
                      16    26 Jan 2026 12:42:31.858    26 Jan 2026 13:12:03.158          1771.300
                      17    26 Jan 2026 14:23:13.628    26 Jan 2026 14:52:47.424          1773.796
                      18    26 Jan 2026 16:03:58.203    26 Jan 2026 16:34:27.708          1829.504
                      19    26 Jan 2026 17:46:11.480    26 Jan 2026 18:18:40.880          1949.400
                      20    26 Jan 2026 19:31:56.361    26 Jan 2026 20:05:41.130          2024.769
                      21    26 Jan 2026 21:19:07.936    26 Jan 2026 21:50:57.179          1909.242
                      22    26 Jan 2026 23:03:09.321    26 Jan 2026 23:33:12.255          1802.935
                      23    27 Jan 2026 00:44:43.475    27 Jan 2026 01:14:04.673          1761.198
                      24    27 Jan 2026 02:25:20.963    27 Jan 2026 02:54:51.297          1770.333
                      25    27 Jan 2026 04:06:10.842    27 Jan 2026 04:36:45.217          1834.375
                      26    27 Jan 2026 05:48:44.516    27 Jan 2026 06:21:25.663          1961.147
                      27    27 Jan 2026 07:34:54.827    27 Jan 2026 08:08:31.412          2016.585
                      28    27 Jan 2026 09:21:44.475    27 Jan 2026 09:53:21.081          1896.606
                      29    27 Jan 2026 11:05:19.018    27 Jan 2026 11:35:20.136          1801.118
                      30    27 Jan 2026 12:46:41.350    27 Jan 2026 13:16:08.239          1766.889
                      31    27 Jan 2026 14:27:16.817    27 Jan 2026 14:56:59.524          1782.707
                      32    27 Jan 2026 16:08:14.458    27 Jan 2026 16:39:09.993          1855.535
                      33    27 Jan 2026 17:51:13.285    27 Jan 2026 18:24:18.697          1985.412
                      34    27 Jan 2026 19:37:54.595    27 Jan 2026 20:11:20.791          2006.196
                      35    27 Jan 2026 21:24:26.857    27 Jan 2026 21:55:40.764          1873.907
                      36    27 Jan 2026 23:07:37.822    27 Jan 2026 23:37:23.821          1785.999
                      37    28 Jan 2026 00:48:48.843    28 Jan 2026 01:18:07.682          1758.838
                      38    28 Jan 2026 02:29:22.588    28 Jan 2026 02:59:04.021          1781.433
                      39    28 Jan 2026 04:10:28.950    28 Jan 2026 04:41:32.094          1863.144
                      40    28 Jan 2026 05:53:53.064    28 Jan 2026 06:27:07.998          1994.934
                      41    28 Jan 2026 07:40:49.946    28 Jan 2026 08:14:02.297          1992.351
                      42    28 Jan 2026 09:26:52.671    28 Jan 2026 09:57:56.643          1863.972

Statistics
----------
Min Duration          37    28 Jan 2026 00:48:48.843    28 Jan 2026 01:18:07.682          1758.838
Max Duration          20    26 Jan 2026 19:31:56.361    26 Jan 2026 20:05:41.130          2024.769
Mean Duration                                                                             1865.830
Total Duration                                                                           78364.865
