Simulation/Extra/3 days simulation - min Beta/Inmarsat1.txt

                                                                               3 Aug 2024 22:33:38
Satellite-NOVASAT-16U-Sensor-LargeAngle-To-Satellite-Inmarsat3F2_24307:  Access Summary Report


LargeAngle-To-Inmarsat3F2_24307
-------------------------------
                  Access        Start Time (UTCG)           Stop Time (UTCG)        Duration (sec)
                  ------    ------------------------    ------------------------    --------------
                       1    25 Jan 2026 11:04:40.453    25 Jan 2026 11:34:00.745          1760.292
                       2    25 Jan 2026 12:44:47.379    25 Jan 2026 13:14:18.058          1770.680
                       3    25 Jan 2026 14:25:02.633    25 Jan 2026 14:55:47.472          1844.839
                       4    25 Jan 2026 16:07:06.430    25 Jan 2026 16:40:40.422          2013.992
                       5    25 Jan 2026 17:54:07.018    25 Jan 2026 18:29:03.370          2096.351
                       6    25 Jan 2026 19:42:16.640    25 Jan 2026 20:14:05.889          1909.249
                       7    25 Jan 2026 21:25:49.040    25 Jan 2026 21:55:39.287          1790.247
                       8    25 Jan 2026 23:06:45.866    25 Jan 2026 23:35:57.076          1751.210
                       9    26 Jan 2026 00:46:49.801    26 Jan 2026 01:16:17.215          1767.415
                      10    26 Jan 2026 02:27:10.255    26 Jan 2026 02:57:59.946          1849.691
                      11    26 Jan 2026 04:09:35.416    26 Jan 2026 04:43:22.549          2027.133
                      12    26 Jan 2026 05:57:03.512    26 Jan 2026 06:31:45.232          2081.719
                      13    26 Jan 2026 07:44:42.212    26 Jan 2026 08:16:20.328          1898.115
                      14    26 Jan 2026 09:27:51.080    26 Jan 2026 09:57:41.595          1790.515
                      15    26 Jan 2026 11:08:39.210    26 Jan 2026 11:37:57.060          1757.850
                      16    26 Jan 2026 12:48:42.244    26 Jan 2026 13:18:22.392          1780.148
                      17    26 Jan 2026 14:29:09.846    26 Jan 2026 15:00:22.151          1872.304
                      18    26 Jan 2026 16:12:01.147    26 Jan 2026 16:46:16.461          2055.314
                      19    26 Jan 2026 18:00:04.053    26 Jan 2026 18:34:26.919          2062.867
                      20    26 Jan 2026 19:47:16.130    26 Jan 2026 20:18:30.537          1874.407
                      21    26 Jan 2026 21:30:02.429    26 Jan 2026 21:59:38.944          1776.515
                      22    26 Jan 2026 23:10:41.432    26 Jan 2026 23:39:51.676          1750.244
                      23    27 Jan 2026 00:50:43.258    27 Jan 2026 01:20:21.766          1778.509
                      24    27 Jan 2026 02:31:18.760    27 Jan 2026 03:02:38.260          1879.500
                      25    27 Jan 2026 04:14:36.430    27 Jan 2026 04:49:02.068          2065.638
                      26    27 Jan 2026 06:02:55.193    27 Jan 2026 06:36:59.526          2044.333
                      27    27 Jan 2026 07:49:32.548    27 Jan 2026 08:20:38.718          1866.171
                      28    27 Jan 2026 09:31:59.643    27 Jan 2026 10:01:37.881          1778.238
                      29    27 Jan 2026 11:12:32.163    27 Jan 2026 11:41:50.100          1757.937
                      30    27 Jan 2026 12:52:34.780    27 Jan 2026 13:22:27.512          1792.732
                      31    27 Jan 2026 14:33:20.332    27 Jan 2026 15:05:04.803          1904.471
                      32    27 Jan 2026 16:17:10.339    27 Jan 2026 16:51:57.486          2087.147
                      33    27 Jan 2026 18:05:51.094    27 Jan 2026 18:39:30.567          2019.473
                      34    27 Jan 2026 19:51:57.680    27 Jan 2026 20:22:42.763          1845.082
                      35    27 Jan 2026 21:34:05.987    27 Jan 2026 22:03:32.098          1766.111
                      36    27 Jan 2026 23:14:31.558    27 Jan 2026 23:43:43.356          1751.798
                      37    28 Jan 2026 00:54:34.791    28 Jan 2026 01:24:27.638          1792.846
                      38    28 Jan 2026 02:35:31.374    28 Jan 2026 03:07:25.333          1913.959
                      39    28 Jan 2026 04:19:51.849    28 Jan 2026 04:54:43.154          2091.305
                      40    28 Jan 2026 06:08:33.164    28 Jan 2026 06:41:53.846          2000.682
                      41    28 Jan 2026 07:54:06.056    28 Jan 2026 08:24:45.505          1839.450
                      42    28 Jan 2026 09:35:58.986    28 Jan 2026 10:00:00.000          1441.014

Statistics
----------
Min Duration          42    28 Jan 2026 09:35:58.986    28 Jan 2026 10:00:00.000          1441.014
Max Duration           5    25 Jan 2026 17:54:07.018    25 Jan 2026 18:29:03.370          2096.351
Mean Duration                                                                             1873.750
Total Duration                                                                           78697.494
