Simulation/Extra/3 days simulation - min Beta/Sun.txt

                                                                     3 Aug 2024 22:31:57
Satellite-NOVASAT-16U:  Lighting


Sunlight Times
--------------
                      Start Time (UTCG)           Stop Time (UTCG)        Duration (sec)
                  ------------------------    ------------------------    --------------
                  25 Jan 2026 10:00:00.000    25 Jan 2026 10:50:49.710          3049.710
                  25 Jan 2026 11:10:32.919    25 Jan 2026 12:27:18.659          4605.740
                  25 Jan 2026 12:46:50.230    25 Jan 2026 14:03:47.759          4617.529
                  25 Jan 2026 14:23:07.521    25 Jan 2026 15:40:16.905          4629.385
                  25 Jan 2026 15:59:24.944    25 Jan 2026 17:16:46.093          4641.149
                  25 Jan 2026 17:35:42.507    25 Jan 2026 18:53:15.335          4652.828
                  25 Jan 2026 19:12:00.152    25 Jan 2026 20:29:44.682          4664.531
                  25 Jan 2026 20:48:17.966    25 Jan 2026 22:06:14.220          4676.253
                  25 Jan 2026 22:24:35.812    25 Jan 2026 23:42:43.703          4687.891
                  26 Jan 2026 00:00:53.788    26 Jan 2026 01:19:13.246          4699.458
                  26 Jan 2026 01:37:12.032    26 Jan 2026 02:55:42.897          4710.865
                  26 Jan 2026 03:13:30.542    26 Jan 2026 04:32:12.513          4721.971
                  26 Jan 2026 04:49:49.134    26 Jan 2026 06:08:42.128          4732.995
                  26 Jan 2026 06:26:07.738    26 Jan 2026 07:45:11.664          4743.926
                  26 Jan 2026 08:02:26.483    26 Jan 2026 09:21:41.168          4754.685
                  26 Jan 2026 09:38:45.474    26 Jan 2026 10:58:10.554          4765.079
                  26 Jan 2026 11:15:04.682    26 Jan 2026 12:34:39.945          4775.263
                  26 Jan 2026 12:51:24.012    26 Jan 2026 14:11:09.421          4785.409
                  26 Jan 2026 14:27:43.371    26 Jan 2026 15:47:38.754          4795.384
                  26 Jan 2026 16:04:03.030    26 Jan 2026 17:24:08.014          4804.984
                  26 Jan 2026 17:40:22.886    26 Jan 2026 19:00:37.145          4814.259
                  26 Jan 2026 19:16:42.989    26 Jan 2026 20:37:06.276          4823.287
                  26 Jan 2026 20:53:03.338    26 Jan 2026 22:13:35.433          4832.095
                  26 Jan 2026 22:29:23.809    26 Jan 2026 23:50:04.297          4840.489
                  27 Jan 2026 00:05:44.565    27 Jan 2026 01:26:33.090          4848.526
                  27 Jan 2026 01:42:05.713    27 Jan 2026 03:03:01.744          4856.031
                  27 Jan 2026 03:18:27.205    27 Jan 2026 04:39:30.187          4862.982
                  27 Jan 2026 04:54:48.827    27 Jan 2026 06:15:58.461          4869.634
                  27 Jan 2026 06:31:10.606    27 Jan 2026 07:52:26.443          4875.837
                  27 Jan 2026 08:07:32.661    27 Jan 2026 09:28:54.150          4881.489
                  27 Jan 2026 09:43:55.082    27 Jan 2026 11:05:21.546          4886.464
                  27 Jan 2026 11:20:17.825    27 Jan 2026 12:41:48.840          4891.016
                  27 Jan 2026 12:56:40.689    27 Jan 2026 14:18:16.016          4895.327
                  27 Jan 2026 14:33:03.711    27 Jan 2026 15:54:42.824          4899.113
                  27 Jan 2026 16:09:27.152    27 Jan 2026 17:31:09.388          4902.236
                  27 Jan 2026 17:45:50.845    27 Jan 2026 19:07:35.606          4904.760
                  27 Jan 2026 19:22:14.925    27 Jan 2026 20:44:01.706          4906.781
                  27 Jan 2026 20:58:39.273    27 Jan 2026 22:20:27.568          4908.295
                  27 Jan 2026 22:35:03.828    27 Jan 2026 23:56:52.935          4909.106
                  28 Jan 2026 00:11:28.772    28 Jan 2026 01:33:18.089          4909.316
                  28 Jan 2026 01:47:54.161    28 Jan 2026 03:09:42.915          4908.755
                  28 Jan 2026 03:24:19.821    28 Jan 2026 04:46:07.451          4907.631
                  28 Jan 2026 05:00:45.601    28 Jan 2026 06:22:31.654          4906.053
                  28 Jan 2026 06:37:11.572    28 Jan 2026 07:58:55.421          4903.849
                  28 Jan 2026 08:13:37.858    28 Jan 2026 09:35:18.755          4900.897
                  28 Jan 2026 09:50:04.461    28 Jan 2026 10:00:00.000           595.539

Statistics
----------
Min Duration      28 Jan 2026 09:50:04.461    28 Jan 2026 10:00:00.000           595.539
Max Duration      28 Jan 2026 00:11:28.772    28 Jan 2026 01:33:18.089          4909.316
Mean Duration                                                                   4677.278
Total Duration                                                                215154.799
