Simulation/Extra/GS.txt

                                                                              29 Jul 2024 18:37:19
Satellite-NOVASAT-16U-Sensor-LargeAngle-To-Place-Haifa:  Access Summary Report


LargeAngle-To-Haifa
-------------------
                  Access        Start Time (UTCG)           Stop Time (UTCG)        Duration (sec)
                  ------    ------------------------    ------------------------    --------------
                       1     1 Jan 2026 15:00:31.461     1 Jan 2026 15:03:34.299           182.838
                       2     1 Jan 2026 16:37:45.084     1 Jan 2026 16:44:06.303           381.219
                       3     1 Jan 2026 18:18:48.370     1 Jan 2026 18:25:18.622           390.252
                       4     1 Jan 2026 20:01:21.767     1 Jan 2026 20:07:15.984           354.217
                       5     1 Jan 2026 21:43:30.950     1 Jan 2026 21:49:30.479           359.529
                       6     1 Jan 2026 23:24:41.352     1 Jan 2026 23:31:18.169           396.818
                       7     2 Jan 2026 01:06:02.909     2 Jan 2026 01:12:19.304           376.395
                       8     2 Jan 2026 15:04:24.855     2 Jan 2026 15:09:09.128           284.273
                       9     2 Jan 2026 16:43:16.756     2 Jan 2026 16:49:50.870           394.114
                      10     2 Jan 2026 18:24:57.518     2 Jan 2026 18:31:17.070           379.552
                      11     2 Jan 2026 20:07:34.747     2 Jan 2026 20:13:23.591           348.844
                      12     2 Jan 2026 21:49:23.216     2 Jan 2026 21:55:33.891           370.676
                      13     2 Jan 2026 23:30:26.851     2 Jan 2026 23:37:07.838           400.987
                      14     3 Jan 2026 01:12:15.073     3 Jan 2026 01:17:55.942           340.869
                      15     3 Jan 2026 15:09:01.730     3 Jan 2026 15:14:41.912           340.182
                      16     3 Jan 2026 16:48:58.113     3 Jan 2026 16:55:35.199           397.086
                      17     3 Jan 2026 18:31:07.469     3 Jan 2026 18:37:14.966           367.497
                      18     3 Jan 2026 20:13:37.932     3 Jan 2026 20:19:27.149           349.217
                      19     3 Jan 2026 21:55:06.822     3 Jan 2026 22:01:29.455           382.633
                      20     3 Jan 2026 23:36:11.288     3 Jan 2026 23:42:48.944           397.656
                      21     4 Jan 2026 01:18:48.863     4 Jan 2026 01:23:25.653           276.790
                      22     4 Jan 2026 13:37:51.526     4 Jan 2026 13:39:45.303           113.777
                      23     4 Jan 2026 15:14:00.462     4 Jan 2026 15:20:13.199           372.737
                      24     4 Jan 2026 16:54:46.783     4 Jan 2026 17:01:19.393           392.610
                      25     4 Jan 2026 18:37:14.950     4 Jan 2026 18:43:11.514           356.564
                      26     4 Jan 2026 20:19:30.076     4 Jan 2026 20:25:25.315           355.239
                      27     4 Jan 2026 22:00:43.566     4 Jan 2026 22:07:16.578           393.012
                      28     4 Jan 2026 23:41:57.719     4 Jan 2026 23:48:21.775           384.056
                      29     5 Jan 2026 01:26:37.223     5 Jan 2026 01:28:49.164           131.941
                      30     5 Jan 2026 13:40:53.410     5 Jan 2026 13:45:06.882           253.471
                      31     5 Jan 2026 15:19:13.453     5 Jan 2026 15:25:43.661           390.208
                      32     5 Jan 2026 17:00:40.176     5 Jan 2026 17:07:03.503           383.327
                      33     5 Jan 2026 18:43:16.422     5 Jan 2026 18:49:05.778           349.356
                      34     5 Jan 2026 20:25:11.735     5 Jan 2026 20:31:16.982           365.247
                      35     5 Jan 2026 22:06:15.897     5 Jan 2026 22:12:55.141           399.244
                      36     5 Jan 2026 23:47:50.942     5 Jan 2026 23:53:46.938           355.996
                      37     6 Jan 2026 13:45:04.372     6 Jan 2026 13:50:26.107           321.735
                      38     6 Jan 2026 15:24:37.231     6 Jan 2026 15:31:13.709           396.478
                      39     6 Jan 2026 17:06:35.768     6 Jan 2026 17:12:47.234           371.466
                      40     6 Jan 2026 18:49:08.977     6 Jan 2026 18:54:56.528           347.551
                      41     6 Jan 2026 20:30:43.972     6 Jan 2026 20:37:01.160           377.189
                      42     6 Jan 2026 22:11:46.025     6 Jan 2026 22:18:25.137           399.112
                      43     6 Jan 2026 23:53:59.616     6 Jan 2026 23:59:04.955           305.339
                      44     7 Jan 2026 13:49:41.692     7 Jan 2026 13:55:43.575           361.883
                      45     7 Jan 2026 15:30:08.798     7 Jan 2026 15:36:43.519           394.721
                      46     7 Jan 2026 17:12:30.008     7 Jan 2026 17:18:29.872           359.864
                      47     7 Jan 2026 18:54:51.005     7 Jan 2026 19:00:42.381           351.376
                      48     7 Jan 2026 20:36:08.760     7 Jan 2026 20:42:37.139           388.379
                      49     7 Jan 2026 22:17:16.791     7 Jan 2026 22:23:46.790           389.999
                      50     8 Jan 2026 00:00:48.305     8 Jan 2026 00:04:16.503           208.198
                      51     8 Jan 2026 12:16:56.120     8 Jan 2026 12:20:27.981           211.862
                      52     8 Jan 2026 13:54:35.483     8 Jan 2026 14:00:59.932           384.449
                      53     8 Jan 2026 15:35:46.195     8 Jan 2026 15:42:13.206           387.012
                      54     8 Jan 2026 17:18:19.600     8 Jan 2026 17:24:10.611           351.011
                      55     8 Jan 2026 19:00:22.119     8 Jan 2026 19:06:22.192           360.072
                      56     8 Jan 2026 20:41:28.124     8 Jan 2026 20:48:04.648           396.524
                      57     8 Jan 2026 22:22:52.104     8 Jan 2026 22:29:00.589           368.485
                      58     9 Jan 2026 12:20:35.457     9 Jan 2026 12:25:33.752           298.295
                      59     9 Jan 2026 13:59:40.840     9 Jan 2026 14:06:15.713           394.873
                      60     9 Jan 2026 15:41:26.626     9 Jan 2026 15:47:42.637           376.011
                      61     9 Jan 2026 17:24:01.510     9 Jan 2026 17:29:48.365           346.856
                      62     9 Jan 2026 19:05:43.571     9 Jan 2026 19:11:54.973           371.402
                      63     9 Jan 2026 20:46:44.445     9 Jan 2026 20:53:23.692           399.247
                      64     9 Jan 2026 22:28:38.343     9 Jan 2026 22:34:07.117           328.774
                      65    10 Jan 2026 12:24:49.935    10 Jan 2026 12:30:37.534           347.600
                      66    10 Jan 2026 14:04:55.161    10 Jan 2026 14:11:31.176           396.016
                      67    10 Jan 2026 15:47:07.249    10 Jan 2026 15:53:11.287           364.039
                      68    10 Jan 2026 17:29:33.340    10 Jan 2026 17:35:21.812           348.472
                      69    10 Jan 2026 19:10:56.697    10 Jan 2026 19:17:19.882           383.184
                      70    10 Jan 2026 20:52:00.115    10 Jan 2026 20:58:34.356           394.242
                      71    10 Jan 2026 22:34:50.154    10 Jan 2026 22:39:06.943           256.789
                      72    11 Jan 2026 10:52:41.795    11 Jan 2026 10:55:12.597           150.801
                      73    11 Jan 2026 12:29:23.312    11 Jan 2026 12:35:39.921           376.609
                      74    11 Jan 2026 14:10:15.799    11 Jan 2026 14:16:46.449           390.649
                      75    11 Jan 2026 15:52:44.584    11 Jan 2026 15:58:38.374           353.790
                      76    11 Jan 2026 17:34:54.528    11 Jan 2026 17:40:49.730           355.202
                      77    11 Jan 2026 19:16:03.689    11 Jan 2026 19:22:36.508           392.820
                      78    11 Jan 2026 20:57:18.447    11 Jan 2026 21:03:37.045           378.597
                      79    11 Jan 2026 22:43:27.820    11 Jan 2026 22:43:53.676            25.855
                      80    12 Jan 2026 10:55:37.680    12 Jan 2026 11:00:05.097           267.417
                      81    12 Jan 2026 12:34:09.970    12 Jan 2026 12:40:41.536           391.566
                      82    12 Jan 2026 14:15:40.812    12 Jan 2026 14:22:01.568           380.756
                      83    12 Jan 2026 15:58:15.507    12 Jan 2026 16:04:03.016           347.509
                      84    12 Jan 2026 17:40:05.425    12 Jan 2026 17:46:11.113           365.687
                      85    12 Jan 2026 19:21:06.619    12 Jan 2026 19:27:44.764           398.145
                      86    12 Jan 2026 21:02:44.459    12 Jan 2026 21:08:32.328           347.868
                      87    13 Jan 2026 10:59:26.171    13 Jan 2026 11:04:55.396           329.225
                      88    13 Jan 2026 12:39:06.304    13 Jan 2026 12:45:42.759           396.455
                      89    13 Jan 2026 14:21:07.159    13 Jan 2026 14:27:16.170           369.012
                      90    13 Jan 2026 16:03:37.445    13 Jan 2026 16:09:23.980           346.535
                      91    13 Jan 2026 17:45:07.627    13 Jan 2026 17:51:25.082           377.455
                      92    13 Jan 2026 19:26:07.894    13 Jan 2026 19:32:44.721           396.827
                      93    13 Jan 2026 21:08:27.522    13 Jan 2026 21:13:20.768           293.246
                      94    14 Jan 2026 09:29:15.673    14 Jan 2026 09:29:21.047             5.374
                      95    14 Jan 2026 11:03:38.330    14 Jan 2026 11:09:44.048           365.718
                      96    14 Jan 2026 12:44:10.105    14 Jan 2026 12:50:43.742           393.637
                      97    14 Jan 2026 14:26:31.862    14 Jan 2026 14:32:29.597           357.735
                      98    14 Jan 2026 16:08:48.853    14 Jan 2026 16:14:40.004           351.150
                      99    14 Jan 2026 17:50:02.685    14 Jan 2026 17:56:31.008           388.323
                     100    14 Jan 2026 19:31:10.181    14 Jan 2026 19:37:36.609           386.428
                     101    14 Jan 2026 21:14:58.182    14 Jan 2026 21:18:03.012           184.830
                     102    15 Jan 2026 09:30:14.876    15 Jan 2026 09:34:00.601           225.726
                     103    15 Jan 2026 11:08:05.389    15 Jan 2026 11:14:31.715           386.326
                     104    15 Jan 2026 12:49:18.983    15 Jan 2026 12:55:44.610           385.627
                     105    15 Jan 2026 14:31:51.552    15 Jan 2026 14:37:41.048           349.496
                     106    15 Jan 2026 16:13:49.952    15 Jan 2026 16:19:50.050           360.098
                     107    15 Jan 2026 17:54:52.967    15 Jan 2026 18:01:28.751           395.784
                     108    15 Jan 2026 19:36:17.593    15 Jan 2026 19:42:21.004           363.411
                     109    16 Jan 2026 09:33:32.818    16 Jan 2026 09:38:37.693           304.876
                     110    16 Jan 2026 11:12:43.529    16 Jan 2026 11:19:18.885           395.356
                     111    16 Jan 2026 12:54:30.776    16 Jan 2026 13:00:45.220           374.444
                     112    16 Jan 2026 14:37:03.511    16 Jan 2026 14:42:49.507           345.997
                     113    16 Jan 2026 16:18:41.667    16 Jan 2026 16:24:53.203           371.536
                     114    16 Jan 2026 17:59:40.454    16 Jan 2026 18:06:18.308           397.854
                     115    16 Jan 2026 19:41:36.707    16 Jan 2026 19:46:58.423           321.715
                     116    17 Jan 2026 09:37:21.835    17 Jan 2026 09:43:12.988           351.153
                     117    17 Jan 2026 11:17:29.970    17 Jan 2026 11:24:05.820           395.851
                     118    17 Jan 2026 12:59:42.250    17 Jan 2026 13:05:45.043           362.794
                     119    17 Jan 2026 14:42:05.642    17 Jan 2026 14:47:53.701           348.059
                     120    17 Jan 2026 16:23:25.715    17 Jan 2026 16:29:48.736           383.020
                     121    17 Jan 2026 18:04:27.787    17 Jan 2026 18:10:59.852           392.064
                     122    17 Jan 2026 19:47:23.285    17 Jan 2026 19:51:29.496           246.211
                     123    18 Jan 2026 08:04:37.080    18 Jan 2026 08:07:20.963           163.884
                     124    18 Jan 2026 09:41:28.688    18 Jan 2026 09:47:47.042           378.354
                     125    18 Jan 2026 11:22:22.596    18 Jan 2026 11:28:52.651           390.056
                     126    18 Jan 2026 13:04:50.535    18 Jan 2026 13:10:43.373           352.838
                     127    18 Jan 2026 14:46:57.431    18 Jan 2026 14:52:52.538           355.107
                     128    18 Jan 2026 16:28:03.949    18 Jan 2026 16:34:36.299           392.350
                     129    18 Jan 2026 18:09:18.022    18 Jan 2026 18:15:33.779           375.756
                     130    19 Jan 2026 08:07:12.826    19 Jan 2026 08:11:45.314           272.487
                     131    19 Jan 2026 09:45:48.147    19 Jan 2026 09:52:20.513           392.366
                     132    19 Jan 2026 11:27:19.258    19 Jan 2026 11:33:39.441           380.184
                     133    19 Jan 2026 13:09:52.356    19 Jan 2026 13:15:39.362           347.006
                     134    19 Jan 2026 14:51:39.515    19 Jan 2026 14:57:45.090           365.575
                     135    19 Jan 2026 16:32:38.631    19 Jan 2026 16:39:15.887           397.256
                     136    19 Jan 2026 18:14:16.398    19 Jan 2026 18:20:00.707           344.309
                     137    20 Jan 2026 08:10:36.072    20 Jan 2026 08:16:07.680           331.608
                     138    20 Jan 2026 09:50:16.982    20 Jan 2026 09:56:53.737           396.755
                     139    20 Jan 2026 11:32:17.298    20 Jan 2026 11:38:25.831           368.534
                     140    20 Jan 2026 13:14:45.599    20 Jan 2026 13:20:31.861           346.262
                     141    20 Jan 2026 14:56:13.317    20 Jan 2026 15:02:30.553           377.236
                     142    20 Jan 2026 16:37:11.908    20 Jan 2026 16:43:47.569           395.661
                     143    20 Jan 2026 18:19:32.207    20 Jan 2026 18:24:21.160           288.953
                     144    21 Jan 2026 06:39:34.740    21 Jan 2026 06:40:07.205            32.465
                     145    21 Jan 2026 08:14:21.786    21 Jan 2026 08:20:28.645           366.858
                     146    21 Jan 2026 09:54:53.152    21 Jan 2026 10:01:26.902           393.750
                     147    21 Jan 2026 11:37:13.698    21 Jan 2026 11:43:11.211           357.513
                     148    21 Jan 2026 13:19:28.671    21 Jan 2026 13:25:19.677           351.006
                     149    21 Jan 2026 15:00:40.481    21 Jan 2026 15:07:08.374           387.893
                     150    21 Jan 2026 16:41:46.525    21 Jan 2026 16:48:11.613           385.088
                     151    21 Jan 2026 18:25:37.330    21 Jan 2026 18:28:35.807           178.477
                     152    22 Jan 2026 06:40:31.674    22 Jan 2026 06:44:19.341           227.667
                     153    22 Jan 2026 08:18:21.953    22 Jan 2026 08:24:48.834           386.881
                     154    22 Jan 2026 09:59:34.338    22 Jan 2026 10:06:00.123           385.784
                     155    22 Jan 2026 11:42:05.383    22 Jan 2026 11:47:54.826           349.444
                     156    22 Jan 2026 13:24:01.977    22 Jan 2026 13:30:01.856           359.878
                     157    22 Jan 2026 15:05:03.222    22 Jan 2026 15:11:38.434           395.212
                     158    22 Jan 2026 16:46:26.390    22 Jan 2026 16:52:28.580           362.190
                     159    23 Jan 2026 06:43:24.067    23 Jan 2026 06:48:29.282           305.215
                     160    23 Jan 2026 08:22:33.015    23 Jan 2026 08:29:08.729           395.714
                     161    23 Jan 2026 10:04:18.519    23 Jan 2026 10:10:33.269           374.750
                     162    23 Jan 2026 11:46:49.698    23 Jan 2026 11:52:35.704           346.006
                     163    23 Jan 2026 13:28:26.350    23 Jan 2026 13:34:37.512           371.162
                     164    23 Jan 2026 15:09:23.465    23 Jan 2026 15:16:00.729           397.264
                     165    23 Jan 2026 16:51:17.907    23 Jan 2026 16:56:38.958           321.051
                     166    24 Jan 2026 06:46:46.707    24 Jan 2026 06:52:37.640           350.933
                     167    24 Jan 2026 08:26:52.308    24 Jan 2026 08:33:28.555           396.247
                     168    24 Jan 2026 10:09:02.578    24 Jan 2026 10:15:05.814           363.236
                     169    24 Jan 2026 11:51:24.621    24 Jan 2026 11:57:12.603           347.982
                     170    24 Jan 2026 13:32:43.409    24 Jan 2026 13:39:05.932           382.523
                     171    24 Jan 2026 15:13:43.693    24 Jan 2026 15:20:15.402           391.709
                     172    24 Jan 2026 16:56:36.190    24 Jan 2026 17:00:43.324           247.134
                     173    25 Jan 2026 05:13:41.271    25 Jan 2026 05:16:20.773           159.502
                     174    25 Jan 2026 06:50:26.814    25 Jan 2026 06:56:44.914           378.101
                     175    25 Jan 2026 08:31:17.713    25 Jan 2026 08:37:48.404           390.691
                     176    25 Jan 2026 10:13:43.679    25 Jan 2026 10:19:37.041           353.362
                     177    25 Jan 2026 11:55:49.658    25 Jan 2026 12:01:44.443           354.785
                     178    25 Jan 2026 13:36:54.943    25 Jan 2026 13:43:26.746           391.803
                     179    25 Jan 2026 15:18:06.808    25 Jan 2026 15:24:22.790           375.981
                     180    26 Jan 2026 05:15:49.332    26 Jan 2026 05:20:18.621           269.289
                     181    26 Jan 2026 06:54:19.412    26 Jan 2026 07:00:51.678           392.266
                     182    26 Jan 2026 08:35:47.264    26 Jan 2026 08:42:08.288           381.024
                     183    26 Jan 2026 10:18:18.739    26 Jan 2026 10:24:06.102           347.363
                     184    26 Jan 2026 12:00:05.238    26 Jan 2026 12:06:10.274           365.036
                     185    26 Jan 2026 13:41:02.955    26 Jan 2026 13:47:39.867           396.913
                     186    26 Jan 2026 15:22:37.622    26 Jan 2026 15:28:23.412           345.790
                     187    27 Jan 2026 05:18:45.455    27 Jan 2026 05:24:14.538           329.083
                     188    27 Jan 2026 06:58:21.216    27 Jan 2026 07:04:58.205           396.988
                     189    27 Jan 2026 08:40:18.172    27 Jan 2026 08:46:27.806           369.634
                     190    27 Jan 2026 10:22:45.447    27 Jan 2026 10:28:31.814           346.366
                     191    27 Jan 2026 12:04:12.753    27 Jan 2026 12:10:29.246           376.493
                     192    27 Jan 2026 13:45:09.547    27 Jan 2026 13:51:45.299           395.752
                     193    27 Jan 2026 15:27:24.755    27 Jan 2026 15:32:17.709           292.954
                     194    28 Jan 2026 05:22:03.932    28 Jan 2026 05:28:08.951           365.019
                     195    28 Jan 2026 07:02:30.081    28 Jan 2026 07:09:04.554           394.473
                     196    28 Jan 2026 08:44:47.703    28 Jan 2026 08:50:46.275           358.572
                     197    28 Jan 2026 10:27:02.326    28 Jan 2026 10:32:52.943           350.617
                     198    28 Jan 2026 12:08:13.569    28 Jan 2026 12:14:40.697           387.128
                     199    28 Jan 2026 13:49:17.037    28 Jan 2026 13:55:43.162           386.124
                     200    28 Jan 2026 15:32:55.385    28 Jan 2026 15:36:06.182           190.797
                     201    29 Jan 2026 03:47:57.294    29 Jan 2026 03:51:35.421           218.127
                     202    29 Jan 2026 05:25:36.716    29 Jan 2026 05:32:02.397           385.681
                     203    29 Jan 2026 07:06:43.904    29 Jan 2026 07:13:10.770           386.866
                     204    29 Jan 2026 08:49:12.560    29 Jan 2026 08:55:02.892           350.332
                     205    29 Jan 2026 10:31:09.314    29 Jan 2026 10:37:08.442           359.128
                     206    29 Jan 2026 12:12:09.671    29 Jan 2026 12:18:44.396           394.725
                     207    29 Jan 2026 13:53:29.114    29 Jan 2026 13:59:33.889           364.775
                     208    30 Jan 2026 03:50:19.611    30 Jan 2026 03:55:18.646           299.035
                     209    30 Jan 2026 05:29:19.854    30 Jan 2026 05:35:55.224           395.370
                     210    30 Jan 2026 07:11:00.350    30 Jan 2026 07:17:16.626           376.276
                     211    30 Jan 2026 08:53:30.248    30 Jan 2026 08:59:16.630           346.382
                     212    30 Jan 2026 10:35:07.353    30 Jan 2026 10:41:17.382           370.029
                     213    30 Jan 2026 12:16:02.920    30 Jan 2026 12:22:40.251           397.331
                     214    30 Jan 2026 13:57:51.332    30 Jan 2026 14:03:17.862           326.531
                     215    31 Jan 2026 03:53:13.379    31 Jan 2026 03:58:59.865           346.486
                     216    31 Jan 2026 05:33:10.946    31 Jan 2026 05:39:47.555           396.609
                     217    31 Jan 2026 07:15:16.802    31 Jan 2026 07:21:21.555           364.753
                     218    31 Jan 2026 08:57:38.541    31 Jan 2026 09:03:26.223           347.683
                     219    31 Jan 2026 10:38:57.568    31 Jan 2026 10:45:18.923           381.355
                     220    31 Jan 2026 12:19:55.295    31 Jan 2026 12:26:28.234           392.940
                     221    31 Jan 2026 14:02:36.499    31 Jan 2026 14:06:55.478           258.979
                     222     1 Feb 2026 02:20:02.861     1 Feb 2026 02:22:18.235           135.373
                     223     1 Feb 2026 03:56:24.431     1 Feb 2026 04:02:39.501           375.070
                     224     1 Feb 2026 05:37:07.668     1 Feb 2026 05:43:39.412           391.744
                     225     1 Feb 2026 07:19:30.007     1 Feb 2026 07:25:24.780           354.774
                     226     1 Feb 2026 09:01:36.666     1 Feb 2026 09:07:30.497           353.831
                     227     1 Feb 2026 10:42:41.763     1 Feb 2026 10:49:12.600           390.837
                     228     1 Feb 2026 12:23:49.696     1 Feb 2026 12:30:08.601           378.905
                     229     1 Feb 2026 14:08:54.070     1 Feb 2026 14:10:27.349            93.279
                     230     2 Feb 2026 02:21:31.434     2 Feb 2026 02:25:48.264           256.830
                     231     2 Feb 2026 03:59:47.301     2 Feb 2026 04:06:17.983           390.682
                     232     2 Feb 2026 05:41:07.995     2 Feb 2026 05:47:30.716           382.720
                     233     2 Feb 2026 07:23:37.343     2 Feb 2026 07:29:25.443           348.101
                     234     2 Feb 2026 09:05:25.051     2 Feb 2026 09:11:28.493           363.441
                     235     2 Feb 2026 10:46:21.678     2 Feb 2026 10:52:58.239           396.560
                     236     2 Feb 2026 12:27:50.010     2 Feb 2026 12:33:41.747           351.737
                     237     3 Feb 2026 02:23:55.122     3 Feb 2026 02:29:15.714           320.592
                     238     3 Feb 2026 04:03:19.079     3 Feb 2026 04:09:55.575           396.496
                     239     3 Feb 2026 05:45:09.614     3 Feb 2026 05:51:21.112           371.499
                     240     3 Feb 2026 07:27:36.119     3 Feb 2026 07:33:22.400           346.281
                     241     3 Feb 2026 09:09:04.582     3 Feb 2026 09:15:19.290           374.708
                     242     3 Feb 2026 10:49:59.125     3 Feb 2026 10:56:35.750           396.625
                     243     3 Feb 2026 12:32:03.684     3 Feb 2026 12:37:08.019           304.335
                     244     4 Feb 2026 02:26:41.726     4 Feb 2026 02:32:40.964           359.238
                     245     4 Feb 2026 04:06:57.194     4 Feb 2026 04:13:32.301           395.107
                     246     4 Feb 2026 05:49:09.430     4 Feb 2026 05:55:09.900           360.469
                     247     4 Feb 2026 07:31:24.834     4 Feb 2026 07:37:14.395           349.561
                     248     4 Feb 2026 09:12:36.794     4 Feb 2026 09:19:02.194           385.400
                     249     4 Feb 2026 10:53:36.446     4 Feb 2026 11:00:05.222           388.777
                     250     4 Feb 2026 12:36:50.503     4 Feb 2026 12:40:27.883           217.380
                     251     5 Feb 2026 00:52:27.537     5 Feb 2026 00:55:41.221           193.684
                     252     5 Feb 2026 02:29:42.355     5 Feb 2026 02:36:04.436           382.080
                     253     5 Feb 2026 04:10:39.684     5 Feb 2026 04:17:08.145           388.461
                     254     5 Feb 2026 05:53:04.753     5 Feb 2026 05:58:56.313           351.560
                     255     5 Feb 2026 07:35:03.262     5 Feb 2026 07:41:00.399           357.137
                     256     5 Feb 2026 09:16:03.305     5 Feb 2026 09:22:36.892           393.586
                     257     5 Feb 2026 10:57:16.533     5 Feb 2026 11:03:26.959           370.427
                     258     6 Feb 2026 00:54:10.112     6 Feb 2026 00:58:54.296           284.184
                     259     6 Feb 2026 02:32:53.081     6 Feb 2026 02:39:26.532           393.451
                     260     6 Feb 2026 04:14:24.633     6 Feb 2026 04:20:42.989           378.357
                     261     6 Feb 2026 05:56:52.764     6 Feb 2026 06:02:39.438           346.674
                     262     6 Feb 2026 07:38:31.953     6 Feb 2026 07:44:39.492           367.538
                     263     6 Feb 2026 09:19:25.904     6 Feb 2026 09:26:03.283           397.380
                     264     6 Feb 2026 11:01:04.290     6 Feb 2026 11:06:41.368           337.078
                     265     7 Feb 2026 00:56:28.139     7 Feb 2026 01:02:04.641           336.502
                     266     7 Feb 2026 02:36:11.076     7 Feb 2026 02:42:47.420           396.344
                     267     7 Feb 2026 04:18:09.257     7 Feb 2026 04:24:16.348           367.091
                     268     7 Feb 2026 06:00:31.310     7 Feb 2026 06:06:18.090           346.780
                     269     7 Feb 2026 07:41:52.187     7 Feb 2026 07:48:10.881           378.694
                     270     7 Feb 2026 09:22:46.584     7 Feb 2026 09:29:21.362           394.777
                     271     7 Feb 2026 11:05:09.464     7 Feb 2026 11:09:48.849           279.386
                     272     7 Feb 2026 23:23:45.301     7 Feb 2026 23:24:55.409            70.107
                     273     8 Feb 2026 00:59:04.191     8 Feb 2026 01:05:12.625           368.434
                     274     8 Feb 2026 02:39:34.223     8 Feb 2026 02:46:07.119           392.895
                     275     8 Feb 2026 04:21:50.873     8 Feb 2026 04:27:47.527           356.655
                     276     8 Feb 2026 06:03:59.530     8 Feb 2026 06:09:51.164           351.634
                     277     8 Feb 2026 07:45:05.448     8 Feb 2026 07:51:34.059           388.611
                     278     8 Feb 2026 09:26:07.656     8 Feb 2026 09:32:31.309           383.653
                     279     8 Feb 2026 11:10:06.398     8 Feb 2026 11:12:49.934           163.536
                     280     8 Feb 2026 23:24:02.741     8 Feb 2026 23:27:53.782           231.042
                     281     9 Feb 2026 01:01:52.137     9 Feb 2026 01:08:18.749           386.613
                     282     9 Feb 2026 02:43:00.868     9 Feb 2026 02:49:25.675           384.808
                     283     9 Feb 2026 04:25:26.783     9 Feb 2026 04:31:15.827           349.044
                     284     9 Feb 2026 06:07:17.429     9 Feb 2026 06:13:17.763           360.334
                     285     9 Feb 2026 07:48:13.461     9 Feb 2026 07:54:48.871           395.410
                     286     9 Feb 2026 09:29:32.599     9 Feb 2026 09:35:33.570           360.971
                     287     9 Feb 2026 23:25:44.823     9 Feb 2026 23:30:48.957           304.134
                     288    10 Feb 2026 01:04:48.650    10 Feb 2026 01:11:23.393           394.743
                     289    10 Feb 2026 02:46:28.715    10 Feb 2026 02:52:42.902           374.187
                     290    10 Feb 2026 04:28:54.434    10 Feb 2026 04:34:40.294           345.860
                     291    10 Feb 2026 06:10:25.965    10 Feb 2026 06:16:37.086           371.121
                     292    10 Feb 2026 07:51:18.106    10 Feb 2026 07:57:55.320           397.214
                     293    10 Feb 2026 09:33:07.356    10 Feb 2026 09:38:28.570           321.214
                     294    10 Feb 2026 23:27:53.227    10 Feb 2026 23:33:41.392           348.165
                     295    11 Feb 2026 01:07:51.360    11 Feb 2026 01:14:26.675           395.315
                     296    11 Feb 2026 02:49:55.171    11 Feb 2026 02:55:58.275           363.104
                     297    11 Feb 2026 04:32:12.297    11 Feb 2026 04:37:59.824           347.527
                     298    11 Feb 2026 06:13:26.541    11 Feb 2026 06:19:48.489           381.948
                     299    11 Feb 2026 07:54:21.372    11 Feb 2026 08:00:53.494           392.122
                     300    11 Feb 2026 09:37:04.849    11 Feb 2026 09:41:16.773           251.924
                     301    11 Feb 2026 21:53:50.205    11 Feb 2026 21:56:13.289           143.084
                     302    11 Feb 2026 23:30:16.638    11 Feb 2026 23:36:31.539           374.901
                     303    12 Feb 2026 01:10:58.481    12 Feb 2026 01:17:28.690           390.209
                     304    12 Feb 2026 02:53:17.778    12 Feb 2026 02:59:11.179           353.401
                     305    12 Feb 2026 04:35:19.750    12 Feb 2026 04:41:13.466           353.716
                     306    12 Feb 2026 06:16:20.666    12 Feb 2026 06:22:51.646           390.980
                     307    12 Feb 2026 07:57:25.852    12 Feb 2026 08:03:43.706           377.853
                     308    12 Feb 2026 09:42:49.722    12 Feb 2026 09:43:58.815            69.093
                     309    12 Feb 2026 21:54:36.252    12 Feb 2026 21:58:53.444           257.192
                     310    12 Feb 2026 23:32:50.473    12 Feb 2026 23:39:19.923           389.450
                     311    13 Feb 2026 01:14:08.294    13 Feb 2026 01:20:29.483           381.189
                     312    13 Feb 2026 02:56:33.810    13 Feb 2026 03:02:20.918           347.108
                     313    13 Feb 2026 04:38:17.248    13 Feb 2026 04:44:20.430           363.181
                     314    13 Feb 2026 06:19:10.147    13 Feb 2026 06:25:46.527           396.380
                     315    13 Feb 2026 08:00:35.536    13 Feb 2026 08:06:26.455           350.919
                     316    13 Feb 2026 21:56:11.748    13 Feb 2026 22:01:30.570           318.822
                     317    13 Feb 2026 23:35:31.842    13 Feb 2026 23:42:06.860           395.018
                     318    14 Feb 2026 01:17:18.479    14 Feb 2026 01:23:28.790           370.311
                     319    14 Feb 2026 02:59:41.111    14 Feb 2026 03:05:26.521           345.410
                     320    14 Feb 2026 04:41:05.928    14 Feb 2026 04:47:20.002           374.074
                     321    14 Feb 2026 06:21:56.865    14 Feb 2026 06:28:33.173           396.307
                     322    14 Feb 2026 08:03:57.414    14 Feb 2026 08:09:02.175           304.761
                     323    14 Feb 2026 21:58:08.420    14 Feb 2026 22:04:05.078           356.658
                     324    14 Feb 2026 23:38:18.680    14 Feb 2026 23:44:52.444           393.764
                     325    15 Feb 2026 01:20:26.521    15 Feb 2026 01:26:26.062           359.541
                     326    15 Feb 2026 03:02:38.524    15 Feb 2026 03:08:26.947           348.423
                     327    15 Feb 2026 04:43:47.173    15 Feb 2026 04:50:11.636           384.463
                     328    15 Feb 2026 06:24:42.843    15 Feb 2026 06:31:11.740           388.897
                     329    15 Feb 2026 08:07:49.322    15 Feb 2026 08:11:31.353           222.031
                     330    15 Feb 2026 20:23:14.809    15 Feb 2026 20:26:18.348           183.539
                     331    15 Feb 2026 22:00:18.098    15 Feb 2026 22:06:37.471           379.373
                     332    15 Feb 2026 23:41:09.340    15 Feb 2026 23:47:36.773           387.433
                     333    16 Feb 2026 01:23:30.000    16 Feb 2026 01:29:20.702           350.702
                     334    16 Feb 2026 03:05:25.729    16 Feb 2026 03:11:21.342           355.613
                     335    16 Feb 2026 04:46:22.566    16 Feb 2026 04:52:55.133           392.567
                     336    16 Feb 2026 06:27:30.910    16 Feb 2026 06:33:42.607           371.697
                     337    16 Feb 2026 20:24:04.369    16 Feb 2026 20:28:40.485           276.116
                     338    16 Feb 2026 22:02:37.089    16 Feb 2026 22:09:08.201           391.112
                     339    16 Feb 2026 23:44:02.043    16 Feb 2026 23:50:19.829           377.786
                     340    17 Feb 2026 01:26:26.366    17 Feb 2026 01:32:11.964           345.598
                     341    17 Feb 2026 03:08:03.396    17 Feb 2026 03:14:08.947           365.551
                     342    17 Feb 2026 04:48:53.854    17 Feb 2026 04:55:30.484           396.630
                     343    17 Feb 2026 06:30:25.453    17 Feb 2026 06:36:06.228           340.775
                     344    17 Feb 2026 20:25:30.054    17 Feb 2026 20:30:59.710           329.656
                     345    17 Feb 2026 22:05:02.844    17 Feb 2026 22:11:37.490           394.646
                     346    17 Feb 2026 23:46:54.411    17 Feb 2026 23:53:01.242           366.831
                     347    18 Feb 2026 01:29:13.666    18 Feb 2026 01:34:58.831           345.165
                     348    18 Feb 2026 03:10:32.661    18 Feb 2026 03:16:49.072           376.411
                     349    18 Feb 2026 04:51:22.841    18 Feb 2026 04:57:57.718           394.877
                     350    18 Feb 2026 06:33:34.784    18 Feb 2026 06:38:23.010           288.226
                     351    18 Feb 2026 20:27:13.598    18 Feb 2026 20:33:16.404           362.805
                     352    18 Feb 2026 22:07:33.417    18 Feb 2026 22:14:05.392           391.975
                     353    18 Feb 2026 23:49:43.918    18 Feb 2026 23:55:40.427           356.508
                     354    19 Feb 2026 01:31:50.995    19 Feb 2026 01:37:40.301           349.307
                     355    19 Feb 2026 03:12:54.970    19 Feb 2026 03:19:21.258           386.288
                     356    19 Feb 2026 04:53:51.661    19 Feb 2026 05:00:17.021           385.360
                     357    19 Feb 2026 06:37:23.879    19 Feb 2026 06:40:33.442           189.563
                     358    19 Feb 2026 18:51:40.739    19 Feb 2026 18:55:11.275           210.536
                     359    19 Feb 2026 20:29:08.626    19 Feb 2026 20:35:31.040           382.414
                     360    19 Feb 2026 22:10:07.163    19 Feb 2026 22:16:31.971           384.808
                     361    19 Feb 2026 23:52:28.245    19 Feb 2026 23:58:16.759           348.514
                     362    20 Feb 2026 01:34:18.357    20 Feb 2026 01:40:15.568           357.211
                     363    20 Feb 2026 03:15:11.861    20 Feb 2026 03:21:45.350           393.489
                     364    20 Feb 2026 04:56:23.286    20 Feb 2026 05:02:28.789           365.503
                     365    20 Feb 2026 18:52:25.356    20 Feb 2026 18:57:15.356           290.001
                     366    20 Feb 2026 20:31:11.980    20 Feb 2026 20:37:43.980           392.000
                     367    20 Feb 2026 22:12:42.346    20 Feb 2026 22:18:57.102           374.756
                     368    20 Feb 2026 23:55:04.991    21 Feb 2026 00:00:49.428           344.437
                     369    21 Feb 2026 01:36:36.468    21 Feb 2026 01:42:43.876           367.408
                     370    21 Feb 2026 03:17:24.983    21 Feb 2026 03:24:01.319           396.335
                     371    21 Feb 2026 04:59:02.453    21 Feb 2026 05:04:33.399           330.945
                     372    21 Feb 2026 18:53:38.881    21 Feb 2026 18:59:16.510           337.629
                     373    21 Feb 2026 20:33:21.404    21 Feb 2026 20:39:55.354           393.950
                     374    21 Feb 2026 22:15:16.504    21 Feb 2026 22:21:20.340           363.835
                     375    21 Feb 2026 23:57:32.369    22 Feb 2026 00:03:17.389           345.020
                     376    22 Feb 2026 01:38:46.432    22 Feb 2026 01:45:04.553           378.121
                     377    22 Feb 2026 03:19:36.040    22 Feb 2026 03:26:09.180           393.140
                     378    22 Feb 2026 05:01:58.924    22 Feb 2026 05:06:31.216           272.292
                     379    22 Feb 2026 17:19:42.114    22 Feb 2026 17:21:02.465            80.351
                     380    22 Feb 2026 18:55:07.882    22 Feb 2026 19:01:15.091           367.208
                     381    22 Feb 2026 20:35:35.005    22 Feb 2026 20:42:05.195           390.190
                     382    22 Feb 2026 22:17:47.126    22 Feb 2026 22:23:41.060           353.933
                     383    22 Feb 2026 23:59:49.603    23 Feb 2026 00:05:39.669           350.066
                     384    23 Feb 2026 01:40:49.677    23 Feb 2026 01:47:17.187           387.511
                     385    23 Feb 2026 03:21:47.320    23 Feb 2026 03:28:09.133           381.813
                     386    23 Feb 2026 05:05:48.480    23 Feb 2026 05:08:22.743           154.263
                     387    23 Feb 2026 17:19:02.108    23 Feb 2026 17:22:51.426           229.318
                     388    23 Feb 2026 18:56:47.113    23 Feb 2026 19:03:11.512           384.400
                     389    23 Feb 2026 20:37:51.107    23 Feb 2026 20:44:13.502           382.395
                     390    23 Feb 2026 22:20:11.817    23 Feb 2026 22:25:58.606           346.790
                     391    24 Feb 2026 00:01:57.033    24 Feb 2026 00:07:55.485           358.452
                     392    24 Feb 2026 01:42:47.774    24 Feb 2026 01:49:21.659           393.885
                     393    24 Feb 2026 03:24:01.886    24 Feb 2026 03:30:01.564           359.678
                     394    24 Feb 2026 17:19:36.833    24 Feb 2026 17:24:36.932           300.099
                     395    24 Feb 2026 18:58:33.684    24 Feb 2026 19:05:06.039           392.355
                     396    24 Feb 2026 20:40:07.803    24 Feb 2026 20:46:20.044           372.241
                     397    24 Feb 2026 22:22:28.543    24 Feb 2026 22:28:12.097           343.554
                     398    25 Feb 2026 00:03:55.336    25 Feb 2026 00:10:04.078           368.742
                     399    25 Feb 2026 01:44:42.212    25 Feb 2026 01:51:17.900           395.688
                     400    25 Feb 2026 03:26:24.800    25 Feb 2026 03:31:46.771           321.971
                     401    25 Feb 2026 17:20:35.888    25 Feb 2026 17:26:19.315           343.427
                     402    25 Feb 2026 19:00:25.494    25 Feb 2026 19:06:58.714           393.220
                     403    25 Feb 2026 20:42:22.873    25 Feb 2026 20:48:24.300           361.427
                     404    25 Feb 2026 22:24:35.574    25 Feb 2026 22:30:20.475           344.901
                     405    26 Feb 2026 00:05:45.560    26 Feb 2026 00:12:04.783           379.222
                     406    26 Feb 2026 01:46:34.640    26 Feb 2026 01:53:05.897           391.258
                     407    26 Feb 2026 03:29:07.143    26 Feb 2026 03:33:25.076           257.933
                     408    26 Feb 2026 15:45:48.621    26 Feb 2026 15:47:46.498           117.877
                     409    26 Feb 2026 17:21:48.584    26 Feb 2026 17:27:58.890           370.306
                     410    26 Feb 2026 19:02:20.863    26 Feb 2026 19:08:49.533           388.670
                     411    26 Feb 2026 20:44:33.720    26 Feb 2026 20:50:25.632           351.912
                     412    26 Feb 2026 22:26:32.282    26 Feb 2026 22:32:22.792           350.510
                     413    27 Feb 2026 00:07:29.067    27 Feb 2026 00:13:57.217           388.151
                     414    27 Feb 2026 01:48:27.287    27 Feb 2026 01:54:45.845           378.558
                     415    27 Feb 2026 03:33:01.219    27 Feb 2026 03:34:56.956           115.736
                     416    27 Feb 2026 15:45:14.032    27 Feb 2026 15:49:16.025           241.993
                     417    27 Feb 2026 17:23:10.356    27 Feb 2026 17:29:36.029           385.673
                     418    27 Feb 2026 19:04:18.021    27 Feb 2026 19:10:38.447           380.426
                     419    27 Feb 2026 20:46:37.991    27 Feb 2026 20:52:23.347           345.355
                     420    27 Feb 2026 22:28:18.994    27 Feb 2026 22:34:18.265           359.271
                     421    28 Feb 2026 00:09:07.348    28 Feb 2026 00:15:41.259           393.911
                     422    28 Feb 2026 01:50:23.380    28 Feb 2026 01:56:18.097           354.717
                     423    28 Feb 2026 15:45:34.951    28 Feb 2026 15:50:41.824           306.873
                     424    28 Feb 2026 17:24:38.545    28 Feb 2026 17:31:10.921           392.376
                     425    28 Feb 2026 19:06:15.002    28 Feb 2026 19:12:25.161           370.158
                     426    28 Feb 2026 20:48:33.639    28 Feb 2026 20:54:16.516           342.877
                     427    28 Feb 2026 22:29:56.513    28 Feb 2026 22:36:06.149           369.636
                     428     1 Mar 2026 00:10:41.903     1 Mar 2026 00:17:16.828           394.925
                     429     1 Mar 2026 01:52:28.349     1 Mar 2026 01:57:42.914           314.565
                     430     1 Mar 2026 15:46:17.004     1 Mar 2026 15:52:04.179           347.175
                     431     1 Mar 2026 17:26:11.124     1 Mar 2026 17:32:43.556           392.432
                     432     1 Mar 2026 19:08:09.485     1 Mar 2026 19:14:09.100           359.616
                     433     1 Mar 2026 20:50:19.257     1 Mar 2026 20:56:04.100           344.843
                     434     1 Mar 2026 22:31:25.952     1 Mar 2026 22:37:45.816           379.864
                     435     2 Mar 2026 00:12:14.351     2 Mar 2026 00:18:43.925           389.573
                     436     2 Mar 2026 01:54:54.492     2 Mar 2026 01:59:00.599           246.106
                     437     2 Mar 2026 14:10:52.913     2 Mar 2026 14:13:11.604           138.691
                     438     2 Mar 2026 15:47:11.154     2 Mar 2026 15:53:23.383           372.229
                     439     2 Mar 2026 17:27:46.436     2 Mar 2026 17:34:13.922           387.487
                     440     2 Mar 2026 19:09:59.092     2 Mar 2026 19:15:49.646           350.554
                     441     2 Mar 2026 20:51:54.430     2 Mar 2026 20:57:45.217           350.787
                     442     2 Mar 2026 22:32:48.571     2 Mar 2026 22:39:16.944           388.373
                     443     3 Mar 2026 00:13:46.890     3 Mar 2026 00:20:02.760           375.870
                     444     3 Mar 2026 01:58:59.991     3 Mar 2026 02:00:11.645            71.654
                     445     3 Mar 2026 14:10:10.286     3 Mar 2026 14:14:20.348           250.062
                     446     3 Mar 2026 15:48:13.371     3 Mar 2026 15:54:39.791           386.420
                     447     3 Mar 2026 17:29:22.847     3 Mar 2026 17:35:41.954           379.107
                     448     3 Mar 2026 19:11:41.714     3 Mar 2026 19:17:26.119           344.405
                     449     3 Mar 2026 20:53:19.478     3 Mar 2026 20:59:19.128           359.649
                     450     3 Mar 2026 22:34:05.806     3 Mar 2026 22:40:39.428           393.622
                     451     4 Mar 2026 00:15:22.764     4 Mar 2026 00:21:13.674           350.910
                     452     4 Mar 2026 14:10:13.974     4 Mar 2026 14:15:25.050           311.076
                     453     4 Mar 2026 15:49:21.195     4 Mar 2026 15:55:53.561           392.367
                     454     4 Mar 2026 17:30:58.498     4 Mar 2026 17:37:07.342           368.843
                     455     4 Mar 2026 19:13:15.309     4 Mar 2026 19:18:57.615           342.306
                     456     4 Mar 2026 20:54:35.197     4 Mar 2026 21:00:45.125           369.928
                     457     4 Mar 2026 22:35:19.076     4 Mar 2026 22:41:53.200           394.125
                     458     5 Mar 2026 00:17:07.501     5 Mar 2026 00:22:16.922           309.421
                     459     5 Mar 2026 14:10:36.644     5 Mar 2026 14:16:25.972           349.327
                     460     5 Mar 2026 15:50:32.745     5 Mar 2026 15:57:04.693           391.949
                     461     5 Mar 2026 17:32:31.116     5 Mar 2026 17:38:29.536           358.419
                     462     5 Mar 2026 19:14:38.579     5 Mar 2026 19:20:23.146           344.567
                     463     5 Mar 2026 20:55:42.643     5 Mar 2026 21:02:02.635           379.992
                     464     5 Mar 2026 22:36:29.985     5 Mar 2026 22:42:58.290           388.305
                     465     6 Mar 2026 00:19:14.248     6 Mar 2026 00:23:12.823           238.574
                     466     6 Mar 2026 12:34:44.332     6 Mar 2026 12:37:12.702           148.370
                     467     6 Mar 2026 14:11:10.284     6 Mar 2026 14:17:23.435           373.152
                     468     6 Mar 2026 15:51:46.463     6 Mar 2026 15:58:13.187           386.724
                     469     6 Mar 2026 17:33:58.386     6 Mar 2026 17:39:47.953           349.567
                     470     6 Mar 2026 19:15:51.174     6 Mar 2026 19:21:41.893           350.719
                     471     6 Mar 2026 20:56:43.131     6 Mar 2026 21:03:11.392           388.260
                     472     6 Mar 2026 22:37:40.750     6 Mar 2026 22:43:54.939           374.189
                     473     7 Mar 2026 12:33:45.984     7 Mar 2026 12:37:59.432           253.448
                     474     7 Mar 2026 14:11:51.188     7 Mar 2026 14:18:17.783           386.595
                     475     7 Mar 2026 15:53:00.741     7 Mar 2026 15:59:18.992           378.251
                     476     7 Mar 2026 17:35:18.213     7 Mar 2026 17:41:01.950           343.737
                     477     7 Mar 2026 19:16:53.552     7 Mar 2026 19:22:53.173           359.622
                     478     7 Mar 2026 20:57:38.072     7 Mar 2026 21:04:11.329           393.257
                     479     7 Mar 2026 22:38:54.614     7 Mar 2026 22:44:43.502           348.888
                     480     8 Mar 2026 12:33:29.468     8 Mar 2026 12:38:41.856           312.388
                     481     8 Mar 2026 14:12:37.063     8 Mar 2026 14:19:09.186           392.123
                     482     8 Mar 2026 15:54:13.727     8 Mar 2026 16:00:21.813           368.086
                     483     8 Mar 2026 17:36:28.781     8 Mar 2026 17:42:10.663           341.882
                     484     8 Mar 2026 19:17:46.526     8 Mar 2026 19:23:56.336           369.810
                     485     8 Mar 2026 20:58:28.847     8 Mar 2026 21:05:02.412           393.565
                     486     8 Mar 2026 22:40:17.082     8 Mar 2026 22:45:24.242           307.160
                     487     9 Mar 2026 12:33:30.610     9 Mar 2026 12:39:20.242           349.633
                     488     9 Mar 2026 14:13:26.103     9 Mar 2026 14:19:57.648           391.545
                     489     9 Mar 2026 15:55:23.277     9 Mar 2026 16:01:21.137           357.860
                     490     9 Mar 2026 17:37:28.919     9 Mar 2026 17:43:13.176           344.256
                     491     9 Mar 2026 19:18:31.133     9 Mar 2026 19:24:50.873           379.740
                     492     9 Mar 2026 20:59:17.030     9 Mar 2026 21:05:44.700           387.671
                     493     9 Mar 2026 22:42:01.419     9 Mar 2026 22:45:57.498           236.079
                     494    10 Mar 2026 10:57:16.521    10 Mar 2026 10:59:45.702           149.181
                     495    10 Mar 2026 12:33:41.973    10 Mar 2026 12:39:54.940           372.966
                     496    10 Mar 2026 14:14:16.840    10 Mar 2026 14:20:43.206           386.365
                     497    10 Mar 2026 15:56:27.241    10 Mar 2026 16:02:16.434           349.193
                     498    10 Mar 2026 17:38:18.356    10 Mar 2026 17:44:08.744           350.388
                     499    10 Mar 2026 19:19:08.685    10 Mar 2026 19:25:36.570           387.886
                     500    10 Mar 2026 21:00:04.804    10 Mar 2026 21:06:18.465           373.661
                     501    11 Mar 2026 10:55:56.950    11 Mar 2026 11:00:09.570           252.620
                     502    11 Mar 2026 12:34:00.072    11 Mar 2026 12:40:26.302           386.229
                     503    11 Mar 2026 14:15:07.803    11 Mar 2026 14:21:25.841           378.037
                     504    11 Mar 2026 15:57:23.665    11 Mar 2026 16:03:07.125           343.460
                     505    11 Mar 2026 17:38:57.579    11 Mar 2026 17:44:56.756           359.178
                     506    11 Mar 2026 19:19:40.563    11 Mar 2026 19:26:13.406           392.843
                     507    11 Mar 2026 21:00:55.337    11 Mar 2026 21:06:44.085           348.748
                     508    12 Mar 2026 10:55:17.900    12 Mar 2026 11:00:28.981           311.082
                     509    12 Mar 2026 12:34:22.742    12 Mar 2026 12:40:54.528           391.787
                     510    12 Mar 2026 14:15:57.258    12 Mar 2026 14:22:05.305           368.047
                     511    12 Mar 2026 15:58:10.846    12 Mar 2026 16:03:52.423           341.577
                     512    12 Mar 2026 17:39:27.397    12 Mar 2026 17:45:36.626           369.229
                     513    12 Mar 2026 19:20:08.127    12 Mar 2026 19:26:41.380           393.252
                     514    12 Mar 2026 21:01:53.886    12 Mar 2026 21:07:01.847           307.961
                     515    13 Mar 2026 10:54:55.977    13 Mar 2026 11:00:44.228           348.251
                     516    13 Mar 2026 12:34:48.280    13 Mar 2026 12:41:19.657           391.377
                     517    13 Mar 2026 14:16:43.186    13 Mar 2026 14:22:41.144           357.958
                     518    13 Mar 2026 15:58:47.684    13 Mar 2026 16:04:31.483           343.799
                     519    13 Mar 2026 17:39:48.840    13 Mar 2026 17:46:07.897           379.057
                     520    13 Mar 2026 19:20:32.911    13 Mar 2026 19:27:00.584           387.674
                     521    13 Mar 2026 21:03:12.801    13 Mar 2026 21:07:12.106           239.306
                     522    14 Mar 2026 09:18:27.559    14 Mar 2026 09:20:48.354           140.794
                     523    14 Mar 2026 10:54:43.939    14 Mar 2026 11:00:55.665           371.726
                     524    14 Mar 2026 12:35:15.311    14 Mar 2026 12:41:41.755           386.444
                     525    14 Mar 2026 14:17:23.572    14 Mar 2026 14:23:12.890           349.318
                     526    14 Mar 2026 15:59:13.931    14 Mar 2026 16:05:03.628           349.697
                     527    14 Mar 2026 17:40:03.192    14 Mar 2026 17:46:30.396           387.204
                     528    14 Mar 2026 19:20:57.004    14 Mar 2026 19:27:11.309           374.305
                     529    14 Mar 2026 21:06:18.631    14 Mar 2026 21:07:15.396            56.765
                     530    15 Mar 2026 09:16:41.824    15 Mar 2026 09:20:49.081           247.257
                     531    15 Mar 2026 10:54:38.392    15 Mar 2026 11:01:03.683           385.291
                     532    15 Mar 2026 12:35:42.469    15 Mar 2026 12:42:00.851           378.382
                     533    15 Mar 2026 14:17:56.567    15 Mar 2026 14:23:40.031           343.464
                     534    15 Mar 2026 15:59:30.064    15 Mar 2026 16:05:28.305           358.241
                     535    15 Mar 2026 17:40:11.798    15 Mar 2026 17:46:44.132           392.334
                     536    15 Mar 2026 19:21:23.370    15 Mar 2026 19:27:13.953           350.584
                     537    16 Mar 2026 09:15:38.434    16 Mar 2026 09:20:45.315           306.881
                     538    16 Mar 2026 10:54:37.253    16 Mar 2026 11:01:08.499           391.246
                     539    16 Mar 2026 12:36:08.143    16 Mar 2026 12:42:16.749           368.606
                     540    16 Mar 2026 14:18:20.552    16 Mar 2026 14:24:01.851           341.299
                     541    16 Mar 2026 15:59:36.873    16 Mar 2026 16:05:44.978           368.105
                     542    16 Mar 2026 17:40:15.981    16 Mar 2026 17:46:49.132           393.151
                     543    16 Mar 2026 19:21:56.877    16 Mar 2026 19:27:08.817           311.940
                     544    17 Mar 2026 09:14:52.422    17 Mar 2026 09:20:37.354           344.932
                     545    17 Mar 2026 10:54:38.884    17 Mar 2026 11:01:10.177           391.292
                     546    17 Mar 2026 12:36:30.428    17 Mar 2026 12:42:29.037           358.608
                     547    17 Mar 2026 14:18:34.421    17 Mar 2026 14:24:17.554           343.133
                     548    17 Mar 2026 15:59:35.329    17 Mar 2026 16:05:53.209           377.880
                     549    17 Mar 2026 17:40:17.182    17 Mar 2026 17:46:45.484           388.302
                     550    17 Mar 2026 19:22:48.345    17 Mar 2026 19:26:56.241           247.896
                     551    18 Mar 2026 07:38:19.575    18 Mar 2026 07:40:20.553           120.978
                     552    18 Mar 2026 09:14:16.319    18 Mar 2026 09:20:25.538           369.220
                     553    18 Mar 2026 10:54:41.963    18 Mar 2026 11:01:08.787           386.824
                     554    18 Mar 2026 12:36:47.405    18 Mar 2026 12:42:37.276           349.870
                     555    18 Mar 2026 14:18:37.887    18 Mar 2026 14:24:26.487           348.600
                     556    18 Mar 2026 15:59:26.657    18 Mar 2026 16:05:52.819           386.162
                     557    18 Mar 2026 17:40:17.358    18 Mar 2026 17:46:33.458           376.101
                     558    18 Mar 2026 19:24:50.753    18 Mar 2026 19:26:36.730           105.977
                     559    19 Mar 2026 07:36:01.542    19 Mar 2026 07:39:58.267           236.724
                     560    19 Mar 2026 09:13:46.667    19 Mar 2026 09:20:10.253           383.587
                     561    19 Mar 2026 10:54:45.204    19 Mar 2026 11:01:04.372           379.168
                     562    19 Mar 2026 12:36:57.290    19 Mar 2026 12:42:40.997           343.707
                     563    19 Mar 2026 14:18:31.354    19 Mar 2026 14:24:28.122           356.767
                     564    19 Mar 2026 15:59:12.153    19 Mar 2026 16:05:43.814           391.661
                     565    19 Mar 2026 17:40:19.215    19 Mar 2026 17:46:13.441           354.227
                     566    20 Mar 2026 07:34:32.051    20 Mar 2026 07:39:31.455           299.403
                     567    20 Mar 2026 09:13:21.384    20 Mar 2026 09:19:51.723           390.339
                     568    20 Mar 2026 10:54:47.106    20 Mar 2026 11:00:56.771           369.665
                     569    20 Mar 2026 12:36:58.490    20 Mar 2026 12:42:39.531           341.041
                     570    20 Mar 2026 14:18:15.541    20 Mar 2026 14:24:21.935           366.394
                     571    20 Mar 2026 15:58:53.064    20 Mar 2026 16:05:26.208           393.144
                     572    20 Mar 2026 17:40:27.050    20 Mar 2026 17:45:45.711           318.661
                     573    21 Mar 2026 07:33:21.001    21 Mar 2026 07:39:00.399           339.398
                     574    21 Mar 2026 09:12:58.856    21 Mar 2026 09:19:30.001           391.145
                     575    21 Mar 2026 10:54:45.839    21 Mar 2026 11:00:45.582           359.743
                     576    21 Mar 2026 12:36:49.846    21 Mar 2026 12:42:32.094           342.248
                     577    21 Mar 2026 14:17:51.341    21 Mar 2026 14:24:07.464           376.124
                     578    21 Mar 2026 15:58:30.710    21 Mar 2026 16:05:00.046           389.336
                     579    21 Mar 2026 17:40:49.800    21 Mar 2026 17:45:10.569           260.769
                     580    22 Mar 2026 05:57:00.518    22 Mar 2026 05:58:23.099            82.581
                     581    22 Mar 2026 07:32:20.155    22 Mar 2026 07:38:25.379           365.224
                     582    22 Mar 2026 09:12:37.741    22 Mar 2026 09:19:05.119           387.378
                     583    22 Mar 2026 10:54:39.540    22 Mar 2026 11:00:30.360           350.819
                     584    22 Mar 2026 12:36:30.929    22 Mar 2026 12:42:18.007           347.077
                     585    22 Mar 2026 14:17:19.850    22 Mar 2026 14:23:44.470           384.620
                     586    22 Mar 2026 15:58:06.833    22 Mar 2026 16:04:25.531           378.698
                     587    22 Mar 2026 17:42:01.005    22 Mar 2026 17:44:28.432           147.426
                     588    23 Mar 2026 05:53:57.878    23 Mar 2026 05:57:37.834           219.955
                     589    23 Mar 2026 07:31:25.806    23 Mar 2026 07:37:46.736           380.930
                     590    23 Mar 2026 09:12:16.808    23 Mar 2026 09:18:37.103           380.295
                     591    23 Mar 2026 10:54:26.450    23 Mar 2026 11:00:10.638           344.188
                     592    23 Mar 2026 12:36:02.011    23 Mar 2026 12:41:56.725           354.714
                     593    23 Mar 2026 14:16:42.276    23 Mar 2026 14:23:12.910           390.633
                     594    23 Mar 2026 15:57:43.817    23 Mar 2026 16:03:42.994           359.177
                     595    24 Mar 2026 05:51:59.779    24 Mar 2026 05:56:47.882           288.102
                     596    24 Mar 2026 07:30:35.779    24 Mar 2026 07:37:04.674           388.894
                     597    24 Mar 2026 09:11:54.615    24 Mar 2026 09:18:05.787           371.172
                     598    24 Mar 2026 10:54:04.956    24 Mar 2026 10:59:45.769           340.814
                     599    24 Mar 2026 12:35:23.691    24 Mar 2026 12:41:27.695           364.004
                     600    24 Mar 2026 14:15:59.761    24 Mar 2026 14:22:32.752           392.991
                     601    24 Mar 2026 15:57:25.300    24 Mar 2026 16:02:52.670           327.369
