Simulation/Extra/Inmarsat1.txt

                                                                            22 Jul 2024 19:53:52
Satellite-NOVASAT-16U-Sensor-LargeAngle-To-Satellite-Inmarsat3F2_24307:  Access Summary Report


LargeAngle-To-Inmarsat3F2_24307
-------------------------------
                  Access       Start Time (UTCG)           Stop Time (UTCG)       Duration (sec)
                  ------    -----------------------    -----------------------    --------------
                       1    1 Jan 2026 10:34:38.059    1 Jan 2026 11:05:30.713          1852.654
                       2    1 Jan 2026 12:18:14.811    1 Jan 2026 12:50:19.242          1924.431
                       3    1 Jan 2026 14:03:45.859    1 Jan 2026 14:35:50.932          1925.073
                       4    1 Jan 2026 15:48:54.220    1 Jan 2026 16:19:48.890          1854.670
                       5    1 Jan 2026 17:32:06.841    1 Jan 2026 18:02:05.856          1799.015
                       6    1 Jan 2026 19:13:58.376    1 Jan 2026 19:43:40.042          1781.666
                       7    1 Jan 2026 20:55:27.272    1 Jan 2026 21:25:30.255          1802.983
                       8    1 Jan 2026 22:37:34.643    1 Jan 2026 23:08:37.514          1862.871
                       9    2 Jan 2026 00:21:30.021    2 Jan 2026 00:53:39.612          1929.591
                      10    2 Jan 2026 02:07:12.746    2 Jan 2026 02:39:06.330          1913.584
                      11    2 Jan 2026 03:52:08.873    2 Jan 2026 04:22:48.418          1839.546
                      12    2 Jan 2026 05:35:05.711    2 Jan 2026 06:04:54.994          1789.283
                      13    2 Jan 2026 07:16:48.210    2 Jan 2026 07:46:26.705          1778.495
                      14    2 Jan 2026 08:58:15.732    2 Jan 2026 09:28:22.827          1807.096
                      15    2 Jan 2026 10:40:30.939    2 Jan 2026 11:11:45.982          1875.044
                      16    2 Jan 2026 12:24:43.608    2 Jan 2026 12:57:04.916          1941.308
                      17    2 Jan 2026 14:10:32.869    2 Jan 2026 14:42:26.277          1913.408
                      18    2 Jan 2026 15:55:15.194    2 Jan 2026 16:25:52.274          1837.081
                      19    2 Jan 2026 17:37:58.544    2 Jan 2026 18:07:48.327          1789.783
                      20    2 Jan 2026 19:19:34.470    2 Jan 2026 19:49:17.033          1782.563
                      21    2 Jan 2026 21:01:02.851    2 Jan 2026 21:31:18.272          1815.421
                      22    2 Jan 2026 22:43:29.100    2 Jan 2026 23:14:55.411          1886.311
                      23    3 Jan 2026 00:28:02.461    3 Jan 2026 01:00:25.221          1942.760
                      24    3 Jan 2026 02:13:57.259    3 Jan 2026 02:45:35.904          1898.645
                      25    3 Jan 2026 03:58:23.726    3 Jan 2026 04:28:46.119          1822.393
                      26    3 Jan 2026 05:40:52.453    3 Jan 2026 06:10:33.671          1781.219
                      27    3 Jan 2026 07:22:21.153    3 Jan 2026 07:52:01.843          1780.690
                      28    3 Jan 2026 09:03:50.156    3 Jan 2026 09:34:11.461          1821.305
                      29    3 Jan 2026 10:46:27.126    3 Jan 2026 11:18:07.080          1899.955
                      30    3 Jan 2026 12:31:18.535    3 Jan 2026 13:03:50.175          1951.640
                      31    3 Jan 2026 14:17:13.111    3 Jan 2026 14:48:49.821          1896.710
                      32    3 Jan 2026 16:01:23.591    3 Jan 2026 16:31:44.429          1820.837
                      33    3 Jan 2026 17:43:40.347    3 Jan 2026 18:13:23.402          1783.055
                      34    3 Jan 2026 19:25:04.245    3 Jan 2026 19:54:50.564          1786.319
                      35    3 Jan 2026 21:06:36.325    3 Jan 2026 21:37:07.832          1831.507
                      36    3 Jan 2026 22:49:27.793    3 Jan 2026 23:21:19.355          1911.563
                      37    4 Jan 2026 00:34:40.406    4 Jan 2026 01:07:08.555          1948.149
                      38    4 Jan 2026 02:20:33.185    4 Jan 2026 02:51:53.080          1879.895
                      39    4 Jan 2026 04:04:25.977    4 Jan 2026 04:34:32.985          1807.008
                      40    4 Jan 2026 05:46:29.698    4 Jan 2026 06:16:05.392          1775.694
                      41    4 Jan 2026 07:27:48.202    4 Jan 2026 07:57:34.017          1785.815
                      42    4 Jan 2026 09:09:23.067    4 Jan 2026 09:40:02.395          1839.328

Statistics
----------
Min Duration          40    4 Jan 2026 05:46:29.698    4 Jan 2026 06:16:05.392          1775.694
Max Duration          30    3 Jan 2026 12:31:18.535    3 Jan 2026 13:03:50.175          1951.640
Mean Duration                                                                           1849.199
Total Duration                                                                         77666.362
