Simulation/Extra/Inmarsat1.txt

                                                                              29 Jul 2024 18:36:39
Satellite-NOVASAT-16U-Sensor-LargeAngle-To-Satellite-Inmarsat3F2_24307:  Access Summary Report


LargeAngle-To-Inmarsat3F2_24307
-------------------------------
                  Access        Start Time (UTCG)           Stop Time (UTCG)        Duration (sec)
                  ------    ------------------------    ------------------------    --------------
                       1     1 Jan 2026 10:34:38.124     1 Jan 2026 11:05:30.732          1852.608
                       2     1 Jan 2026 12:18:14.849     1 Jan 2026 12:50:19.243          1924.394
                       3     1 Jan 2026 14:03:45.967     1 Jan 2026 14:35:50.922          1924.955
                       4     1 Jan 2026 15:48:54.253     1 Jan 2026 16:19:48.889          1854.636
                       5     1 Jan 2026 17:32:06.887     1 Jan 2026 18:02:05.851          1798.965
                       6     1 Jan 2026 19:13:58.431     1 Jan 2026 19:43:40.041          1781.609
                       7     1 Jan 2026 20:55:27.324     1 Jan 2026 21:25:30.263          1802.940
                       8     1 Jan 2026 22:37:34.679     1 Jan 2026 23:08:37.518          1862.839
                       9     2 Jan 2026 00:21:30.070     2 Jan 2026 00:53:39.620          1929.550
                      10     2 Jan 2026 02:07:12.825     2 Jan 2026 02:39:06.328          1913.503
                      11     2 Jan 2026 03:52:08.942     2 Jan 2026 04:22:48.411          1839.469
                      12     2 Jan 2026 05:35:05.797     2 Jan 2026 06:04:54.983          1789.186
                      13     2 Jan 2026 07:16:48.271     2 Jan 2026 07:46:26.697          1778.427
                      14     2 Jan 2026 08:58:15.766     2 Jan 2026 09:28:22.826          1807.061
                      15     2 Jan 2026 10:40:30.952     2 Jan 2026 11:11:45.996          1875.044
                      16     2 Jan 2026 12:24:43.703     2 Jan 2026 12:57:04.924          1941.222
                      17     2 Jan 2026 14:10:32.890     2 Jan 2026 14:42:26.264          1913.373
                      18     2 Jan 2026 15:55:15.289     2 Jan 2026 16:25:52.249          1836.959
                      19     2 Jan 2026 17:37:58.590     2 Jan 2026 18:07:48.309          1789.720
                      20     2 Jan 2026 19:19:34.478     2 Jan 2026 19:49:17.027          1782.549
                      21     2 Jan 2026 21:01:02.869     2 Jan 2026 21:31:18.282          1815.413
                      22     2 Jan 2026 22:43:29.160     2 Jan 2026 23:14:55.431          1886.272
                      23     3 Jan 2026 00:28:02.504     3 Jan 2026 01:00:25.221          1942.717
                      24     3 Jan 2026 02:13:57.377     3 Jan 2026 02:45:35.892          1898.515
                      25     3 Jan 2026 03:58:23.774     3 Jan 2026 04:28:46.111          1822.337
                      26     3 Jan 2026 05:40:52.473     3 Jan 2026 06:10:33.674          1781.200
                      27     3 Jan 2026 07:22:21.197     3 Jan 2026 07:52:01.854          1780.657
                      28     3 Jan 2026 09:03:50.216     3 Jan 2026 09:34:11.481          1821.265
                      29     3 Jan 2026 10:46:27.189     3 Jan 2026 11:18:07.089          1899.900
                      30     3 Jan 2026 12:31:18.585     3 Jan 2026 13:03:50.173          1951.588
                      31     3 Jan 2026 14:17:13.194     3 Jan 2026 14:48:49.813          1896.619
                      32     3 Jan 2026 16:01:23.627     3 Jan 2026 16:31:44.422          1820.795
                      33     3 Jan 2026 17:43:40.406     3 Jan 2026 18:13:23.395          1782.989
                      34     3 Jan 2026 19:25:04.299     3 Jan 2026 19:54:50.566          1786.267
                      35     3 Jan 2026 21:06:36.371     3 Jan 2026 21:37:07.839          1831.468
                      36     3 Jan 2026 22:49:27.802     3 Jan 2026 23:21:19.362          1911.560
                      37     4 Jan 2026 00:34:40.514     4 Jan 2026 01:07:08.556          1948.042
                      38     4 Jan 2026 02:20:33.208     4 Jan 2026 02:51:53.075          1879.868
                      39     4 Jan 2026 04:04:26.073     4 Jan 2026 04:34:32.972          1806.899
                      40     4 Jan 2026 05:46:29.768     4 Jan 2026 06:16:05.381          1775.613
                      41     4 Jan 2026 07:27:48.246     4 Jan 2026 07:57:34.014          1785.767
                      42     4 Jan 2026 09:09:23.080     4 Jan 2026 09:40:02.395          1839.315
                      43     4 Jan 2026 10:52:28.444     4 Jan 2026 11:24:34.385          1925.941
                      44     4 Jan 2026 12:37:57.838     4 Jan 2026 13:10:31.143          1953.305
                      45     4 Jan 2026 14:23:43.461     4 Jan 2026 14:55:00.547          1877.086
                      46     4 Jan 2026 16:07:19.695     4 Jan 2026 16:37:26.188          1806.493
                      47     4 Jan 2026 17:49:13.131     4 Jan 2026 18:18:52.011          1778.880
                      48     4 Jan 2026 19:30:28.606     4 Jan 2026 20:00:21.725          1793.120
                      49     4 Jan 2026 21:12:09.069     4 Jan 2026 21:43:00.518          1851.448
                      50     4 Jan 2026 22:55:32.637     4 Jan 2026 23:27:49.323          1936.686
                      51     5 Jan 2026 00:41:21.344     5 Jan 2026 01:13:45.730          1944.386
                      52     5 Jan 2026 02:26:57.955     5 Jan 2026 02:57:57.398          1859.443
                      53     5 Jan 2026 04:10:16.185     5 Jan 2026 04:40:10.022          1793.837
                      54     5 Jan 2026 05:51:58.461     5 Jan 2026 06:21:31.193          1772.733
                      55     5 Jan 2026 07:33:10.410     5 Jan 2026 08:03:04.457          1794.047
                      56     5 Jan 2026 09:14:56.069     5 Jan 2026 09:45:57.349          1861.280
                      57     5 Jan 2026 10:58:36.539     5 Jan 2026 11:31:07.292          1950.753
                      58     5 Jan 2026 12:44:38.255     5 Jan 2026 13:17:04.094          1945.839
                      59     5 Jan 2026 14:30:01.589     5 Jan 2026 15:00:58.564          1856.975
                      60     5 Jan 2026 16:13:04.132     5 Jan 2026 16:42:58.711          1794.579
                      61     5 Jan 2026 17:54:37.915     5 Jan 2026 18:24:15.250          1777.335
                      62     5 Jan 2026 19:35:48.647     5 Jan 2026 20:05:51.822          1803.175
                      63     5 Jan 2026 21:17:42.688     5 Jan 2026 21:48:58.011          1875.323
                      64     5 Jan 2026 23:01:45.123     5 Jan 2026 23:34:24.063          1958.940
                      65     6 Jan 2026 00:48:01.267     6 Jan 2026 01:20:13.328          1932.061
                      66     6 Jan 2026 02:33:09.939     6 Jan 2026 03:03:49.220          1839.281
                      67     6 Jan 2026 04:15:55.285     6 Jan 2026 04:45:38.302          1783.017
                      68     6 Jan 2026 05:57:19.655     6 Jan 2026 06:26:52.084          1772.429
                      69     6 Jan 2026 07:38:28.698     6 Jan 2026 08:08:34.456          1805.758
                      70     6 Jan 2026 09:20:30.709     6 Jan 2026 09:51:57.980          1887.271
                      71     6 Jan 2026 11:04:52.815     6 Jan 2026 11:37:43.794          1970.979
                      72     6 Jan 2026 12:51:15.327     6 Jan 2026 13:23:25.991          1930.665
                      73     6 Jan 2026 14:36:06.904     6 Jan 2026 15:06:44.333          1837.429
                      74     6 Jan 2026 16:18:37.796     6 Jan 2026 16:48:22.964          1785.167
                      75     6 Jan 2026 17:59:55.457     6 Jan 2026 18:29:34.050          1778.593
                      76     6 Jan 2026 19:41:05.272     6 Jan 2026 20:11:22.175          1816.903
                      77     6 Jan 2026 21:23:19.055     6 Jan 2026 21:55:01.895          1902.840
                      78     6 Jan 2026 23:08:05.975     6 Jan 2026 23:41:00.647          1974.672
                      79     7 Jan 2026 00:54:35.672     7 Jan 2026 01:26:28.757          1913.085
                      80     7 Jan 2026 02:39:08.561     7 Jan 2026 03:09:29.199          1820.638
                      81     7 Jan 2026 04:21:23.909     7 Jan 2026 04:50:58.796          1774.887
                      82     7 Jan 2026 06:02:34.089     7 Jan 2026 06:32:09.009          1774.920
                      83     7 Jan 2026 07:43:44.183     7 Jan 2026 08:14:05.445          1821.262
                      84     7 Jan 2026 09:26:09.096     7 Jan 2026 09:58:05.628          1916.532
                      85     7 Jan 2026 11:11:16.919     7 Jan 2026 11:44:20.129          1983.209
                      86     7 Jan 2026 12:57:44.801     7 Jan 2026 13:29:34.868          1910.067
                      87     7 Jan 2026 14:41:58.870     7 Jan 2026 15:12:18.699          1819.829
                      88     7 Jan 2026 16:24:01.600     7 Jan 2026 16:53:39.868          1778.268
                      89     7 Jan 2026 18:05:06.762     7 Jan 2026 18:34:49.369          1782.607
                      90     7 Jan 2026 19:46:19.706     7 Jan 2026 20:16:54.244          1834.538
                      91     7 Jan 2026 21:29:00.137     7 Jan 2026 22:01:13.199          1933.062
                      92     7 Jan 2026 23:14:34.331     7 Jan 2026 23:47:34.882          1980.551
                      93     8 Jan 2026 01:01:00.210     8 Jan 2026 01:32:30.721          1890.510
                      94     8 Jan 2026 02:44:54.239     8 Jan 2026 03:14:58.247          1804.007
                      95     8 Jan 2026 04:26:43.197     8 Jan 2026 04:56:12.397          1769.201
                      96     8 Jan 2026 06:07:42.650     8 Jan 2026 06:37:22.948          1780.298
                      97     8 Jan 2026 07:48:58.004     8 Jan 2026 08:19:38.990          1840.986
                      98     8 Jan 2026 09:31:53.276     8 Jan 2026 10:04:21.108          1947.832
                      99     8 Jan 2026 11:17:47.200     8 Jan 2026 11:50:51.789          1984.588
                     100     8 Jan 2026 13:04:03.154     8 Jan 2026 13:35:30.003          1886.848
                     101     8 Jan 2026 14:47:38.202     8 Jan 2026 15:17:42.692          1804.490
                     102     8 Jan 2026 16:29:16.427     8 Jan 2026 16:58:50.449          1774.022
                     103     8 Jan 2026 18:10:12.601     8 Jan 2026 18:40:02.367          1789.766
                     104     8 Jan 2026 19:51:33.283     8 Jan 2026 20:22:29.872          1856.590
                     105     8 Jan 2026 21:34:48.492     8 Jan 2026 22:07:32.285          1963.792
                     106     8 Jan 2026 23:21:07.079     8 Jan 2026 23:54:02.221          1975.141
                     107     9 Jan 2026 01:07:12.424     9 Jan 2026 01:38:19.070          1866.646
                     108     9 Jan 2026 02:50:27.496     9 Jan 2026 03:20:17.560          1790.063
                     109     9 Jan 2026 04:31:54.039     9 Jan 2026 05:01:20.234          1766.195
                     110     9 Jan 2026 06:12:46.349     9 Jan 2026 06:42:35.215          1788.866
                     111     9 Jan 2026 07:54:11.896     9 Jan 2026 08:25:17.105          1865.209
                     112     9 Jan 2026 09:37:45.662     9 Jan 2026 10:10:44.013          1978.351
                     113     9 Jan 2026 11:24:19.788     9 Jan 2026 11:57:14.393          1974.605
                     114     9 Jan 2026 13:10:08.171     9 Jan 2026 13:41:11.771          1863.600
                     115     9 Jan 2026 14:53:05.748     9 Jan 2026 15:22:57.497          1791.749
                     116     9 Jan 2026 16:34:23.410     9 Jan 2026 17:03:55.728          1772.318
                     117     9 Jan 2026 18:15:14.142     9 Jan 2026 18:45:14.299          1800.157
                     118     9 Jan 2026 19:56:47.738     9 Jan 2026 20:28:10.927          1883.188
                     119     9 Jan 2026 21:40:46.092     9 Jan 2026 22:13:57.817          1991.726
                     120     9 Jan 2026 23:27:39.561    10 Jan 2026 00:00:18.655          1959.094
                     121    10 Jan 2026 01:13:10.688    10 Jan 2026 01:43:54.327          1843.638
                     122    10 Jan 2026 02:55:49.552    10 Jan 2026 03:25:28.126          1778.574
                     123    10 Jan 2026 04:36:57.418    10 Jan 2026 05:06:23.151          1765.733
                     124    10 Jan 2026 06:17:46.068    10 Jan 2026 06:47:46.974          1800.906
                     125    10 Jan 2026 07:59:27.364    10 Jan 2026 08:31:01.594          1894.230
                     126    10 Jan 2026 09:43:48.019    10 Jan 2026 10:17:12.008          2003.989
                     127    10 Jan 2026 11:30:49.073    10 Jan 2026 12:03:24.432          1955.359
                     128    10 Jan 2026 13:15:59.266    10 Jan 2026 13:46:40.773          1841.507
                     129    10 Jan 2026 14:58:22.367    10 Jan 2026 15:28:04.037          1781.670
                     130    10 Jan 2026 16:39:23.172    10 Jan 2026 17:08:56.536          1773.364
                     131    10 Jan 2026 18:20:12.097    10 Jan 2026 18:50:26.418          1814.321
                     132    10 Jan 2026 20:02:04.861    10 Jan 2026 20:33:59.290          1914.428
                     133    10 Jan 2026 21:46:54.387    10 Jan 2026 22:20:26.388          2012.001
                     134    10 Jan 2026 23:34:06.028    11 Jan 2026 00:06:21.399          1935.372
                     135    11 Jan 2026 01:18:54.604    11 Jan 2026 01:49:17.364          1822.760
                     136    11 Jan 2026 03:01:01.045    11 Jan 2026 03:30:30.949          1769.904
                     137    11 Jan 2026 04:41:54.044    11 Jan 2026 05:11:22.086          1768.041
                     138    11 Jan 2026 06:22:42.827    11 Jan 2026 06:52:59.701          1816.874
                     139    11 Jan 2026 08:04:46.704    11 Jan 2026 08:36:54.291          1927.586
                     140    11 Jan 2026 09:50:00.621    11 Jan 2026 10:23:40.715          2020.094
                     141    11 Jan 2026 11:37:10.024    11 Jan 2026 12:09:20.018          1929.994
                     142    11 Jan 2026 13:21:36.214    11 Jan 2026 13:51:58.132          1821.918
                     143    11 Jan 2026 15:03:29.124    11 Jan 2026 15:33:03.344          1774.220
                     144    11 Jan 2026 16:44:16.767    11 Jan 2026 17:13:53.916          1777.149
                     145    11 Jan 2026 18:25:07.794    11 Jan 2026 18:55:40.346          1832.552
                     146    11 Jan 2026 20:07:27.047    11 Jan 2026 20:39:56.528          1949.481
                     147    11 Jan 2026 21:53:12.841    11 Jan 2026 22:26:53.031          2020.190
                     148    11 Jan 2026 23:40:21.467    12 Jan 2026 00:12:09.406          1907.939
                     149    12 Jan 2026 01:24:24.952    12 Jan 2026 01:54:29.366          1804.413
                     150    12 Jan 2026 03:06:03.303    12 Jan 2026 03:35:27.033          1763.731
                     151    12 Jan 2026 04:46:44.945    12 Jan 2026 05:16:18.094          1773.149
                     152    12 Jan 2026 06:27:37.900    12 Jan 2026 06:58:15.105          1837.205
                     153    12 Jan 2026 08:10:12.233    12 Jan 2026 08:42:56.527          1964.294
                     154    12 Jan 2026 09:56:22.223    12 Jan 2026 10:30:04.716          2022.494
                     155    12 Jan 2026 11:43:18.493    12 Jan 2026 12:15:00.730          1902.237
                     156    12 Jan 2026 13:27:00.094    12 Jan 2026 13:57:05.065          1804.972
                     157    12 Jan 2026 15:08:27.035    12 Jan 2026 15:37:56.439          1769.404
                     158    12 Jan 2026 16:49:04.995    12 Jan 2026 17:18:48.966          1783.971
                     159    12 Jan 2026 18:30:02.440    12 Jan 2026 19:00:57.952          1855.513
                     160    12 Jan 2026 20:12:57.101    12 Jan 2026 20:46:03.472          1986.371
                     161    12 Jan 2026 21:59:38.167    12 Jan 2026 22:33:12.157          2013.990
                     162    12 Jan 2026 23:46:23.148    13 Jan 2026 00:17:42.772          1879.625
                     163    13 Jan 2026 01:29:42.458    13 Jan 2026 01:59:31.580          1789.122
                     164    13 Jan 2026 03:10:57.151    13 Jan 2026 03:40:17.415          1760.265
                     165    13 Jan 2026 04:51:30.939    13 Jan 2026 05:21:12.354          1781.416
                     166    13 Jan 2026 06:32:32.767    13 Jan 2026 07:03:35.216          1862.449
                     167    13 Jan 2026 08:15:46.983    13 Jan 2026 08:49:08.246          2001.264
                     168    13 Jan 2026 10:02:47.931    13 Jan 2026 10:36:18.559          2010.628
                     169    13 Jan 2026 11:49:12.161    13 Jan 2026 12:20:27.153          1874.992
                     170    13 Jan 2026 13:32:11.752    13 Jan 2026 14:02:02.767          1791.015
                     171    13 Jan 2026 15:13:17.075    13 Jan 2026 15:42:44.275          1767.200
                     172    13 Jan 2026 16:53:48.830    13 Jan 2026 17:23:42.855          1794.024
                     173    13 Jan 2026 18:34:57.760    13 Jan 2026 19:06:21.223          1883.464
                     174    13 Jan 2026 20:18:37.657    13 Jan 2026 20:52:18.918          2021.261
                     175    13 Jan 2026 22:06:04.737    13 Jan 2026 22:39:18.929          1994.192
                     176    13 Jan 2026 23:52:09.257    14 Jan 2026 00:23:02.293          1853.036
                     177    14 Jan 2026 01:34:48.458    14 Jan 2026 02:04:25.035          1776.577
                     178    14 Jan 2026 03:15:43.610    14 Jan 2026 03:45:02.902          1759.292
                     179    14 Jan 2026 04:56:12.949    14 Jan 2026 05:26:05.984          1793.035
                     180    14 Jan 2026 06:37:29.024    14 Jan 2026 07:09:02.000          1892.977
                     181    14 Jan 2026 08:21:33.112    14 Jan 2026 08:55:27.146          2034.034
                     182    14 Jan 2026 10:09:11.122    14 Jan 2026 10:42:18.223          1987.101
                     183    14 Jan 2026 11:54:50.521    14 Jan 2026 12:25:40.180          1849.659
                     184    14 Jan 2026 13:37:12.342    14 Jan 2026 14:06:52.208          1779.866
                     185    14 Jan 2026 15:18:00.026    14 Jan 2026 15:47:27.657          1767.631
                     186    14 Jan 2026 16:58:29.067    14 Jan 2026 17:28:36.790          1807.723
                     187    14 Jan 2026 18:39:55.423    14 Jan 2026 19:11:52.306          1916.883
                     188    14 Jan 2026 20:24:31.087    14 Jan 2026 20:58:39.325          2048.238
                     189    14 Jan 2026 22:12:25.167    14 Jan 2026 22:45:10.372          1965.205
                     190    14 Jan 2026 23:57:39.959    15 Jan 2026 00:28:09.156          1829.196
                     191    15 Jan 2026 01:39:43.795    15 Jan 2026 02:09:10.828          1767.034
                     192    15 Jan 2026 03:20:23.384    15 Jan 2026 03:49:44.446          1761.062
                     193    15 Jan 2026 05:00:51.885    15 Jan 2026 05:31:00.461          1808.575
                     194    15 Jan 2026 06:42:28.885    15 Jan 2026 07:14:37.773          1928.888
                     195    15 Jan 2026 08:27:32.273    15 Jan 2026 09:01:48.415          2056.143
                     196    15 Jan 2026 10:15:25.536    15 Jan 2026 10:48:01.842          1956.306
                     197    15 Jan 2026 12:00:13.773    15 Jan 2026 12:30:41.312          1827.540
                     198    15 Jan 2026 13:42:03.003    15 Jan 2026 14:11:34.587          1771.584
                     199    15 Jan 2026 15:22:36.895    15 Jan 2026 15:52:07.713          1770.818
                     200    15 Jan 2026 17:03:06.973    15 Jan 2026 17:33:32.486          1825.513
                     201    15 Jan 2026 18:44:58.156    15 Jan 2026 19:17:33.320          1955.164
                     202    15 Jan 2026 20:30:37.592    15 Jan 2026 21:04:58.905          2061.312
                     203    15 Jan 2026 22:18:33.635    15 Jan 2026 22:50:45.622          1931.986
                     204    16 Jan 2026 00:02:56.192    16 Jan 2026 00:33:04.843          1808.651
                     205    16 Jan 2026 01:44:29.992    16 Jan 2026 02:13:50.068          1760.076
                     206    16 Jan 2026 03:24:57.645    16 Jan 2026 03:54:23.158          1765.513
                     207    16 Jan 2026 05:05:29.161    16 Jan 2026 05:35:57.529          1828.367
                     208    16 Jan 2026 06:47:34.979    16 Jan 2026 07:20:24.308          1969.329
                     209    16 Jan 2026 08:33:43.423    16 Jan 2026 09:08:05.537          2062.114
                     210    16 Jan 2026 10:21:25.949    16 Jan 2026 10:53:29.255          1923.306
                     211    16 Jan 2026 12:05:23.368    16 Jan 2026 12:35:31.874          1808.505
                     212    16 Jan 2026 13:46:44.942    16 Jan 2026 14:16:10.850          1765.908
                     213    16 Jan 2026 15:27:08.580    16 Jan 2026 15:56:45.407          1776.827
                     214    16 Jan 2026 17:07:43.731    16 Jan 2026 17:38:31.648          1847.918
                     215    16 Jan 2026 18:50:08.579    16 Jan 2026 19:23:25.526          1996.947
                     216    16 Jan 2026 20:36:54.509    16 Jan 2026 21:11:10.811          2056.302
                     217    16 Jan 2026 22:24:26.548    16 Jan 2026 22:56:05.010          1898.462
                     218    17 Jan 2026 00:07:59.104    17 Jan 2026 00:37:50.614          1791.509
                     219    17 Jan 2026 01:49:07.777    17 Jan 2026 02:18:23.643          1755.866
                     220    17 Jan 2026 03:29:26.970    17 Jan 2026 03:58:59.998          1773.028
                     221    17 Jan 2026 05:10:05.860    17 Jan 2026 05:40:59.032          1853.172
                     222    17 Jan 2026 06:52:50.292    17 Jan 2026 07:26:22.164          2011.872
                     223    17 Jan 2026 08:40:01.498    17 Jan 2026 09:14:11.780          2050.283
                     224    17 Jan 2026 10:27:10.070    17 Jan 2026 10:58:41.291          1891.222
                     225    17 Jan 2026 12:10:20.174    17 Jan 2026 12:40:13.158          1792.984
                     226    17 Jan 2026 13:51:18.978    17 Jan 2026 14:20:41.932          1762.954
                     227    17 Jan 2026 15:31:35.827    17 Jan 2026 16:01:21.843          1786.015
                     228    17 Jan 2026 17:12:20.790    17 Jan 2026 17:43:36.335          1875.545
                     229    17 Jan 2026 18:55:30.116    17 Jan 2026 19:29:28.330          2038.214
                     230    17 Jan 2026 20:43:14.930    17 Jan 2026 21:17:09.192          2034.262
                     231    17 Jan 2026 22:30:02.137    17 Jan 2026 23:01:09.760          1867.623
                     232    18 Jan 2026 00:12:50.049    18 Jan 2026 00:42:27.701          1777.652
                     233    18 Jan 2026 01:53:38.281    18 Jan 2026 02:22:52.478          1754.197
                     234    18 Jan 2026 03:33:52.444    18 Jan 2026 04:03:36.173          1783.729
                     235    18 Jan 2026 05:14:43.851    18 Jan 2026 05:46:07.147          1883.295
                     236    18 Jan 2026 06:58:17.813    18 Jan 2026 07:32:29.517          2051.704
                     237    18 Jan 2026 08:46:19.241    18 Jan 2026 09:20:02.487          2023.246
                     238    18 Jan 2026 10:32:37.227    18 Jan 2026 11:03:39.366          1862.139
                     239    18 Jan 2026 12:15:05.851    18 Jan 2026 12:44:46.301          1780.450
                     240    18 Jan 2026 13:55:46.220    18 Jan 2026 14:25:08.745          1762.525
                     241    18 Jan 2026 15:35:59.692    18 Jan 2026 16:05:58.277          1798.585
                     242    18 Jan 2026 17:17:00.031    18 Jan 2026 17:48:48.804          1908.773
                     243    18 Jan 2026 19:01:05.568    18 Jan 2026 19:35:38.529          2072.961
                     244    18 Jan 2026 20:49:30.221    18 Jan 2026 21:22:50.767          2000.546
                     245    18 Jan 2026 22:35:21.243    18 Jan 2026 23:06:01.426          1840.183
                     246    19 Jan 2026 00:17:30.411    19 Jan 2026 00:46:57.281          1766.870
                     247    19 Jan 2026 01:58:02.377    19 Jan 2026 02:27:17.524          1755.147
                     248    19 Jan 2026 03:38:14.979    19 Jan 2026 04:08:13.062          1798.084
                     249    19 Jan 2026 05:19:24.991    19 Jan 2026 05:51:24.285          1919.295
                     250    19 Jan 2026 07:04:00.210    19 Jan 2026 07:38:41.648          2081.438
                     251    19 Jan 2026 08:52:28.102    19 Jan 2026 09:25:35.566          1987.464
                     252    19 Jan 2026 10:37:48.386    19 Jan 2026 11:08:25.221          1836.835
                     253    19 Jan 2026 12:19:41.510    19 Jan 2026 12:49:12.562          1771.053
                     254    19 Jan 2026 14:00:07.505    19 Jan 2026 14:29:32.339          1764.834
                     255    19 Jan 2026 15:40:21.182    19 Jan 2026 16:10:36.273          1815.091
                     256    19 Jan 2026 17:21:43.810    19 Jan 2026 17:54:11.466          1947.656
                     257    19 Jan 2026 19:06:56.669    19 Jan 2026 19:41:49.853          2093.184
                     258    19 Jan 2026 20:55:33.254    19 Jan 2026 21:28:14.610          1961.356
                     259    19 Jan 2026 22:40:24.704    19 Jan 2026 23:10:41.731          1817.027
                     260    20 Jan 2026 00:22:01.498    20 Jan 2026 00:51:20.509          1759.011
                     261    20 Jan 2026 02:02:21.063    20 Jan 2026 02:31:39.841          1758.778
                     262    20 Jan 2026 03:42:35.799    20 Jan 2026 04:12:52.313          1816.514
                     263    20 Jan 2026 05:24:12.034    20 Jan 2026 05:56:52.586          1960.552
                     264    20 Jan 2026 07:09:57.078    20 Jan 2026 07:44:51.114          2094.036
                     265    20 Jan 2026 08:58:22.086    20 Jan 2026 09:30:51.055          1948.969
                     266    20 Jan 2026 10:42:44.899    20 Jan 2026 11:13:00.382          1815.482
                     267    20 Jan 2026 12:24:08.533    20 Jan 2026 12:53:32.885          1764.352
                     268    20 Jan 2026 14:04:23.851    20 Jan 2026 14:33:53.651          1769.800
                     269    20 Jan 2026 15:44:41.588    20 Jan 2026 16:15:17.439          1835.851
                     270    20 Jan 2026 17:26:34.896    20 Jan 2026 17:59:45.881          1990.985
                     271    20 Jan 2026 19:13:01.297    20 Jan 2026 19:47:54.323          2093.026
                     272    20 Jan 2026 21:01:18.894    20 Jan 2026 21:33:21.376          1922.482
                     273    20 Jan 2026 22:45:14.366    20 Jan 2026 23:15:12.022          1797.657
                     274    21 Jan 2026 00:26:24.393    21 Jan 2026 00:55:38.204          1753.811
                     275    21 Jan 2026 02:06:35.087    21 Jan 2026 02:36:00.301          1765.214
                     276    21 Jan 2026 03:46:56.040    21 Jan 2026 04:17:35.575          1839.535
                     277    21 Jan 2026 05:29:07.590    21 Jan 2026 06:02:33.071          2005.482
                     278    21 Jan 2026 07:16:04.727    21 Jan 2026 07:50:50.016          2085.289
                     279    21 Jan 2026 09:03:58.190    21 Jan 2026 09:35:50.043          1911.853
                     280    21 Jan 2026 10:47:28.282    21 Jan 2026 11:17:26.206          1797.924
                     281    21 Jan 2026 12:28:27.767    21 Jan 2026 12:57:48.163          1760.396
                     282    21 Jan 2026 14:08:35.923    21 Jan 2026 14:38:13.661          1777.738
                     283    21 Jan 2026 15:49:02.085    21 Jan 2026 16:20:03.656          1861.571
                     284    21 Jan 2026 17:31:36.467    21 Jan 2026 18:05:32.286          2035.818
                     285    21 Jan 2026 19:19:12.760    21 Jan 2026 19:53:44.984          2072.224
                     286    21 Jan 2026 21:06:45.934    21 Jan 2026 21:38:12.644          1886.710
                     287    21 Jan 2026 22:49:51.536    21 Jan 2026 23:19:33.724          1782.189
                     288    22 Jan 2026 00:30:40.047    22 Jan 2026 00:59:51.370          1751.323
                     289    22 Jan 2026 02:10:45.344    22 Jan 2026 02:40:20.087          1774.742
                     290    22 Jan 2026 03:51:17.281    22 Jan 2026 04:22:25.006          1867.726
                     291    22 Jan 2026 05:34:15.310    22 Jan 2026 06:08:24.833          2049.523
                     292    22 Jan 2026 07:22:14.561    22 Jan 2026 07:56:32.665          2058.104
                     293    22 Jan 2026 09:09:15.805    22 Jan 2026 09:40:34.491          1878.686
                     294    22 Jan 2026 10:52:00.166    22 Jan 2026 11:21:44.104          1783.938
                     295    22 Jan 2026 12:32:40.422    22 Jan 2026 13:01:59.461          1759.039
                     296    22 Jan 2026 14:12:44.844    22 Jan 2026 14:42:33.709          1788.865
                     297    22 Jan 2026 15:53:24.625    22 Jan 2026 16:24:57.212          1892.587
                     298    22 Jan 2026 17:36:51.976    22 Jan 2026 18:11:28.146          2076.170
                     299    22 Jan 2026 19:25:21.799    22 Jan 2026 19:59:17.810          2036.012
                     300    22 Jan 2026 21:11:54.784    22 Jan 2026 21:42:50.400          1855.615
                     301    22 Jan 2026 22:54:18.150    22 Jan 2026 23:23:48.114          1769.963
                     302    23 Jan 2026 00:34:49.669    23 Jan 2026 01:04:00.995          1751.326
                     303    23 Jan 2026 02:14:53.015    23 Jan 2026 02:44:40.530          1787.515
                     304    23 Jan 2026 03:55:41.531    23 Jan 2026 04:27:22.851          1901.320
                     305    23 Jan 2026 05:39:37.741    23 Jan 2026 06:14:23.694          2085.953
                     306    23 Jan 2026 07:28:17.135    23 Jan 2026 08:01:56.492          2019.357
                     307    23 Jan 2026 09:14:16.337    23 Jan 2026 09:45:06.248          1849.912
                     308    23 Jan 2026 10:56:22.093    23 Jan 2026 11:25:55.191          1773.098
                     309    23 Jan 2026 12:36:47.388    23 Jan 2026 13:06:07.613          1760.225
                     310    23 Jan 2026 14:16:51.556    23 Jan 2026 14:46:55.024          1803.469
                     311    23 Jan 2026 15:57:51.142    23 Jan 2026 16:30:00.222          1929.080
                     312    23 Jan 2026 17:42:23.587    23 Jan 2026 18:17:27.468          2103.882
                     313    23 Jan 2026 19:31:18.675    23 Jan 2026 20:04:31.525          1992.850
                     314    23 Jan 2026 21:16:47.087    23 Jan 2026 21:47:16.371          1829.285
                     315    23 Jan 2026 22:58:35.257    23 Jan 2026 23:27:56.185          1760.928
                     316    24 Jan 2026 00:38:53.899    24 Jan 2026 01:08:07.875          1753.976
                     317    24 Jan 2026 02:18:58.865    24 Jan 2026 02:49:02.897          1804.032
                     318    24 Jan 2026 04:00:10.740    24 Jan 2026 04:32:31.135          1940.395
                     319    24 Jan 2026 05:45:16.148    24 Jan 2026 06:20:22.143          2105.995
                     320    24 Jan 2026 07:34:04.795    24 Jan 2026 08:07:01.291          1976.496
                     321    24 Jan 2026 09:19:01.078    24 Jan 2026 09:49:27.030          1825.953
                     322    24 Jan 2026 11:00:35.099    24 Jan 2026 11:30:00.439          1765.339
                     323    24 Jan 2026 12:40:49.393    24 Jan 2026 13:10:13.493          1764.100
                     324    24 Jan 2026 14:20:57.049    24 Jan 2026 14:51:19.059          1822.010
                     325    24 Jan 2026 16:02:24.144    24 Jan 2026 16:35:14.443          1970.299
                     326    24 Jan 2026 17:48:10.384    24 Jan 2026 18:23:21.833          2111.449
                     327    24 Jan 2026 19:36:57.739    24 Jan 2026 20:09:26.930          1949.191
                     328    24 Jan 2026 21:21:24.499    24 Jan 2026 21:51:32.187          1807.688
                     329    24 Jan 2026 23:02:44.164    24 Jan 2026 23:31:58.872          1754.708
                     330    25 Jan 2026 00:42:53.679    25 Jan 2026 01:12:12.952          1759.273
                     331    25 Jan 2026 02:23:04.190    25 Jan 2026 02:53:28.788          1824.598
                     332    25 Jan 2026 04:04:47.815    25 Jan 2026 04:37:51.141          1983.326
                     333    25 Jan 2026 05:51:07.134    25 Jan 2026 06:26:11.570          2104.436
                     334    25 Jan 2026 07:39:33.277    25 Jan 2026 08:11:48.531          1935.254
                     335    25 Jan 2026 09:23:32.113    25 Jan 2026 09:53:38.330          1806.217
                     336    25 Jan 2026 11:04:40.509    25 Jan 2026 11:34:00.747          1760.238
                     337    25 Jan 2026 12:44:47.428    25 Jan 2026 13:14:18.068          1770.640
                     338    25 Jan 2026 14:25:02.687    25 Jan 2026 14:55:47.483          1844.797
                     339    25 Jan 2026 16:07:06.488    25 Jan 2026 16:40:40.421          2013.934
                     340    25 Jan 2026 17:54:07.172    25 Jan 2026 18:29:03.363          2096.192
                     341    25 Jan 2026 19:42:16.721    25 Jan 2026 20:14:05.876          1909.155
                     342    25 Jan 2026 21:25:49.118    25 Jan 2026 21:55:39.275          1790.157
                     343    25 Jan 2026 23:06:45.920    25 Jan 2026 23:35:57.076          1751.157
                     344    26 Jan 2026 00:46:49.849    26 Jan 2026 01:16:17.221          1767.373
                     345    26 Jan 2026 02:27:10.305    26 Jan 2026 02:57:59.953          1849.648
                     346    26 Jan 2026 04:09:35.426    26 Jan 2026 04:43:22.555          2027.129
                     347    26 Jan 2026 05:57:03.642    26 Jan 2026 06:31:45.220          2081.578
                     348    26 Jan 2026 07:44:42.330    26 Jan 2026 08:16:20.304          1897.973
                     349    26 Jan 2026 09:27:51.130    26 Jan 2026 09:57:41.580          1790.450
                     350    26 Jan 2026 11:08:39.234    26 Jan 2026 11:37:57.044          1757.810
                     351    26 Jan 2026 12:48:42.264    26 Jan 2026 13:18:22.385          1780.121
                     352    26 Jan 2026 14:29:09.859    26 Jan 2026 15:00:22.152          1872.292
                     353    26 Jan 2026 16:12:01.218    26 Jan 2026 16:46:16.471          2055.252
                     354    26 Jan 2026 18:00:04.055    26 Jan 2026 18:34:26.900          2062.845
                     355    26 Jan 2026 19:47:16.214    26 Jan 2026 20:18:30.523          1874.309
                     356    26 Jan 2026 21:30:02.428    26 Jan 2026 21:59:38.940          1776.511
                     357    26 Jan 2026 23:10:41.445    26 Jan 2026 23:39:51.678          1750.234
                     358    27 Jan 2026 00:50:43.272    27 Jan 2026 01:20:21.768          1778.496
                     359    27 Jan 2026 02:31:18.795    27 Jan 2026 03:02:38.278          1879.482
                     360    27 Jan 2026 04:14:36.559    27 Jan 2026 04:49:02.074          2065.515
                     361    27 Jan 2026 06:02:55.331    27 Jan 2026 06:36:59.508          2044.177
                     362    27 Jan 2026 07:49:32.563    27 Jan 2026 08:20:38.716          1866.154
                     363    27 Jan 2026 09:31:59.677    27 Jan 2026 10:01:37.883          1778.206
                     364    27 Jan 2026 11:12:32.198    27 Jan 2026 11:41:50.114          1757.916
                     365    27 Jan 2026 12:52:34.817    27 Jan 2026 13:22:27.526          1792.709
                     366    27 Jan 2026 14:33:20.392    27 Jan 2026 15:05:04.818          1904.427
                     367    27 Jan 2026 16:17:10.417    27 Jan 2026 16:51:57.475          2087.059
                     368    27 Jan 2026 18:05:51.239    27 Jan 2026 18:39:30.561          2019.323
                     369    27 Jan 2026 19:51:57.735    27 Jan 2026 20:22:42.760          1845.025
                     370    27 Jan 2026 21:34:06.052    27 Jan 2026 22:03:32.104          1766.053
                     371    27 Jan 2026 23:14:31.615    27 Jan 2026 23:43:43.375          1751.759
                     372    28 Jan 2026 00:54:34.851    28 Jan 2026 01:24:27.659          1792.807
                     373    28 Jan 2026 02:35:31.452    28 Jan 2026 03:07:25.344          1913.892
                     374    28 Jan 2026 04:19:51.852    28 Jan 2026 04:54:43.147          2091.295
                     375    28 Jan 2026 06:08:33.230    28 Jan 2026 06:41:53.835          2000.605
                     376    28 Jan 2026 07:54:06.142    28 Jan 2026 08:24:45.489          1839.346
                     377    28 Jan 2026 09:35:59.045    28 Jan 2026 10:05:28.101          1769.055
                     378    28 Jan 2026 11:16:20.112    28 Jan 2026 11:45:40.620          1760.509
                     379    28 Jan 2026 12:56:25.935    28 Jan 2026 13:26:34.583          1808.647
                     380    28 Jan 2026 14:37:36.124    28 Jan 2026 15:09:56.887          1940.763
                     381    28 Jan 2026 16:22:34.006    28 Jan 2026 16:57:35.825          2101.820
                     382    28 Jan 2026 18:11:20.948    28 Jan 2026 18:44:14.866          1973.918
                     383    28 Jan 2026 19:56:23.449    28 Jan 2026 20:26:44.296          1820.847
                     384    28 Jan 2026 21:38:00.999    28 Jan 2026 22:07:19.657          1758.659
                     385    28 Jan 2026 23:18:17.073    28 Jan 2026 23:47:32.935          1755.862
                     386    29 Jan 2026 00:58:25.469    29 Jan 2026 01:28:36.128          1810.659
                     387    29 Jan 2026 02:39:50.299    29 Jan 2026 03:12:22.350          1952.051
                     388    29 Jan 2026 04:25:20.077    29 Jan 2026 05:00:17.641          2097.564
                     389    29 Jan 2026 06:13:52.490    29 Jan 2026 06:46:29.574          1957.083
                     390    29 Jan 2026 07:58:24.901    29 Jan 2026 08:28:42.385          1817.484
                     391    29 Jan 2026 09:39:50.345    29 Jan 2026 10:09:13.214          1762.869
                     392    29 Jan 2026 11:20:03.784    29 Jan 2026 11:49:29.493          1765.709
                     393    29 Jan 2026 13:00:16.712    29 Jan 2026 13:30:45.000          1828.289
                     394    29 Jan 2026 14:41:59.515    29 Jan 2026 15:14:59.065          1979.551
                     395    29 Jan 2026 16:28:08.045    29 Jan 2026 17:03:03.551          2095.506
                     396    29 Jan 2026 18:16:30.520    29 Jan 2026 18:48:41.779          1931.259
                     397    29 Jan 2026 20:00:35.335    29 Jan 2026 20:30:36.768          1801.433
                     398    29 Jan 2026 21:41:48.533    29 Jan 2026 22:11:02.556          1754.023
                     399    29 Jan 2026 23:21:58.795    29 Jan 2026 23:51:21.332          1762.537
                     400    30 Jan 2026 01:02:16.470    30 Jan 2026 01:32:48.704          1832.234
                     401    30 Jan 2026 02:44:17.994    30 Jan 2026 03:17:29.192          1991.199
                     402    30 Jan 2026 04:30:54.869    30 Jan 2026 05:05:38.261          2083.392
                     403    30 Jan 2026 06:18:51.357    30 Jan 2026 06:50:48.933          1917.576
                     404    30 Jan 2026 08:02:30.949    30 Jan 2026 08:32:30.808          1799.860
                     405    30 Jan 2026 09:43:34.807    30 Jan 2026 10:12:54.038          1759.231
                     406    30 Jan 2026 11:23:44.138    30 Jan 2026 11:53:17.614          1773.476
                     407    30 Jan 2026 13:04:08.526    30 Jan 2026 13:35:00.187          1851.662
                     408    30 Jan 2026 14:46:32.812    30 Jan 2026 15:20:10.070          2017.258
                     409    30 Jan 2026 16:33:44.772    30 Jan 2026 17:08:14.690          2069.917
                     410    30 Jan 2026 18:21:19.572    30 Jan 2026 18:52:53.439          1893.867
                     411    30 Jan 2026 20:04:35.389    30 Jan 2026 20:34:21.326          1785.937
                     412    30 Jan 2026 21:45:29.535    30 Jan 2026 22:14:41.475          1751.940
                     413    30 Jan 2026 23:25:37.472    30 Jan 2026 23:55:09.347          1771.875
                     414    31 Jan 2026 01:06:08.985    31 Jan 2026 01:37:06.667          1857.683
                     415    31 Jan 2026 02:48:56.112    31 Jan 2026 03:22:43.435          2027.324
                     416    31 Jan 2026 04:36:27.709    31 Jan 2026 05:10:40.475          2052.766
                     417    31 Jan 2026 06:23:30.779    31 Jan 2026 06:54:53.934          1883.155
                     418    31 Jan 2026 08:06:25.800    31 Jan 2026 08:36:11.785          1785.985
                     419    31 Jan 2026 09:47:13.032    31 Jan 2026 10:16:31.176          1758.144
                     420    31 Jan 2026 11:27:21.733    31 Jan 2026 11:57:05.742          1784.009
                     421    31 Jan 2026 13:08:02.534    31 Jan 2026 13:39:21.385          1878.851
                     422    31 Jan 2026 14:51:17.595    31 Jan 2026 15:25:26.169          2048.574
                     423    31 Jan 2026 16:39:14.228    31 Jan 2026 17:13:06.379          2032.151
                     424    31 Jan 2026 18:25:49.779    31 Jan 2026 18:56:51.835          1862.055
                     425    31 Jan 2026 20:08:24.859    31 Jan 2026 20:37:58.952          1774.093
                     426    31 Jan 2026 21:49:04.684    31 Jan 2026 22:18:17.060          1752.376
                     427    31 Jan 2026 23:29:13.771    31 Jan 2026 23:58:57.848          1784.077
                     428     1 Feb 2026 01:10:04.405     1 Feb 2026 01:41:31.277          1886.872
                     429     1 Feb 2026 02:53:45.972     1 Feb 2026 03:28:00.130          2054.158
                     430     1 Feb 2026 04:41:49.420     1 Feb 2026 05:15:22.834          2013.414
                     431     1 Feb 2026 06:27:52.333     1 Feb 2026 06:58:46.610          1854.278
                     432     1 Feb 2026 08:10:10.778     1 Feb 2026 08:39:46.336          1775.558
                     433     1 Feb 2026 09:50:45.867     1 Feb 2026 10:20:05.394          1759.526
                     434     1 Feb 2026 11:30:57.473     1 Feb 2026 12:00:54.938          1797.465
                     435     1 Feb 2026 13:12:00.482     1 Feb 2026 13:43:49.806          1909.324
                     436     1 Feb 2026 14:56:14.105     1 Feb 2026 15:30:41.313          2067.208
                     437     1 Feb 2026 16:44:29.159     1 Feb 2026 17:17:38.572          1989.412
                     438     1 Feb 2026 18:30:03.003     1 Feb 2026 19:00:38.907          1835.904
                     439     1 Feb 2026 20:12:05.253     1 Feb 2026 20:41:30.656          1765.403
                     440     1 Feb 2026 21:52:34.954     1 Feb 2026 22:21:50.148          1755.194
                     441     1 Feb 2026 23:32:48.825     2 Feb 2026 00:02:48.004          1799.180
                     442     2 Feb 2026 01:14:04.700     2 Feb 2026 01:46:03.475          1918.775
                     443     2 Feb 2026 02:58:46.140     2 Feb 2026 03:33:12.546          2066.406
                     444     2 Feb 2026 04:46:54.379     2 Feb 2026 05:19:46.272          1971.894
                     445     2 Feb 2026 06:31:58.277     2 Feb 2026 07:02:28.731          1830.454
                     446     2 Feb 2026 08:13:47.388     2 Feb 2026 08:43:15.384          1767.996
                     447     2 Feb 2026 09:54:14.226     2 Feb 2026 10:23:37.489          1763.262
                     448     2 Feb 2026 11:34:32.420     2 Feb 2026 12:04:46.313          1813.893
                     449     2 Feb 2026 13:16:04.142     2 Feb 2026 13:48:25.849          1941.707
                     450     2 Feb 2026 15:01:19.543     2 Feb 2026 15:35:48.529          2068.987
                     451     2 Feb 2026 16:49:24.945     2 Feb 2026 17:21:52.767          1947.821
                     452     2 Feb 2026 18:34:01.753     2 Feb 2026 19:04:16.200          1814.447
                     453     2 Feb 2026 20:15:37.702     2 Feb 2026 20:44:57.215          1759.513
                     454     2 Feb 2026 21:56:01.043     2 Feb 2026 22:25:21.445          1760.402
                     455     2 Feb 2026 23:36:23.476     3 Feb 2026 00:06:40.839          1817.364
                     456     3 Feb 2026 01:18:11.285     3 Feb 2026 01:50:43.074          1951.789
                     457     3 Feb 2026 03:03:52.812     3 Feb 2026 03:38:13.914          2061.102
                     458     3 Feb 2026 04:51:39.815     3 Feb 2026 05:23:52.510          1932.695
                     459     3 Feb 2026 06:35:50.580     3 Feb 2026 07:06:01.672          1811.091
                     460     3 Feb 2026 08:17:16.418     3 Feb 2026 08:46:39.601          1763.183
                     461     3 Feb 2026 09:57:38.675     3 Feb 2026 10:27:08.095          1769.420
                     462     3 Feb 2026 11:38:07.446     3 Feb 2026 12:08:40.840          1833.394
                     463     3 Feb 2026 13:20:14.998     3 Feb 2026 13:53:08.595          1973.598
                     464     3 Feb 2026 15:06:28.201     3 Feb 2026 15:40:41.798          2053.597
                     465     3 Feb 2026 16:54:00.884     3 Feb 2026 17:25:50.832          1909.949
                     466     3 Feb 2026 18:37:47.536     3 Feb 2026 19:07:44.929          1797.394
                     467     3 Feb 2026 20:19:02.975     3 Feb 2026 20:48:19.277          1756.302
                     468     3 Feb 2026 21:59:23.519     3 Feb 2026 22:28:51.603          1768.084
                     469     3 Feb 2026 23:39:58.667     4 Feb 2026 00:10:37.324          1838.658
                     470     4 Feb 2026 01:22:25.679     4 Feb 2026 01:55:28.323          1982.644
                     471     4 Feb 2026 03:08:58.647     4 Feb 2026 03:42:59.174          2040.528
                     472     4 Feb 2026 04:56:05.813     4 Feb 2026 05:27:43.570          1897.757
                     473     4 Feb 2026 06:39:30.744     4 Feb 2026 07:09:26.565          1795.821
                     474     4 Feb 2026 08:20:38.722     4 Feb 2026 08:49:59.654          1760.933
                     475     4 Feb 2026 10:00:59.915     4 Feb 2026 10:30:37.956          1778.041
                     476     4 Feb 2026 11:41:43.716     4 Feb 2026 12:12:39.518          1855.802
                     477     4 Feb 2026 13:24:34.337     4 Feb 2026 13:57:55.328          2000.990
                     478     4 Feb 2026 15:11:32.170     4 Feb 2026 15:45:17.483          2025.313
                     479     4 Feb 2026 16:58:17.475     4 Feb 2026 17:29:34.845          1877.370
                     480     4 Feb 2026 18:41:22.047     4 Feb 2026 19:11:06.174          1784.127
                     481     4 Feb 2026 20:22:22.023     4 Feb 2026 20:51:37.548          1755.525
                     482     4 Feb 2026 22:02:43.281     4 Feb 2026 22:32:21.456          1778.175
                     483     4 Feb 2026 23:43:35.792     5 Feb 2026 00:14:38.413          1862.621
                     484     5 Feb 2026 01:26:48.389     5 Feb 2026 02:00:15.646          2007.257
                     485     5 Feb 2026 03:13:56.651     5 Feb 2026 03:47:26.112          2009.462
                     486     5 Feb 2026 05:00:13.484     5 Feb 2026 05:31:21.495          1868.011
                     487     5 Feb 2026 06:43:00.523     5 Feb 2026 07:12:44.467          1783.945
                     488     5 Feb 2026 08:23:55.249     5 Feb 2026 08:53:16.270          1761.022
                     489     5 Feb 2026 10:04:18.814     5 Feb 2026 10:34:07.938          1789.124
                     490     5 Feb 2026 11:45:22.522     5 Feb 2026 12:16:43.115          1880.592
                     491     5 Feb 2026 13:29:01.864     5 Feb 2026 14:02:41.678          2019.814
                     492     5 Feb 2026 15:16:24.720     5 Feb 2026 15:49:34.713          1989.994
                     493     5 Feb 2026 17:02:16.800     5 Feb 2026 17:33:06.719          1849.919
                     494     5 Feb 2026 18:44:46.837     5 Feb 2026 19:14:20.905          1774.068
                     495     5 Feb 2026 20:25:35.660     5 Feb 2026 20:54:52.720          1757.060
                     496     5 Feb 2026 22:06:01.072     5 Feb 2026 22:35:51.863          1790.791
                     497     5 Feb 2026 23:47:15.958     6 Feb 2026 00:18:44.642          1888.684
                     498     6 Feb 2026 01:31:18.589     6 Feb 2026 02:05:00.043          2021.454
                     499     6 Feb 2026 03:18:40.592     6 Feb 2026 03:51:34.719          1974.127
                     500     6 Feb 2026 05:04:05.114     6 Feb 2026 05:34:48.058          1842.944
                     501     6 Feb 2026 06:46:21.100     6 Feb 2026 07:15:56.268          1775.168
                     502     6 Feb 2026 08:27:06.686     6 Feb 2026 08:56:30.097          1763.411
                     503     6 Feb 2026 10:07:36.141     6 Feb 2026 10:37:38.863          1802.722
                     504     6 Feb 2026 11:49:05.069     6 Feb 2026 12:20:51.866          1906.796
                     505     6 Feb 2026 13:33:36.022     6 Feb 2026 14:07:22.194          2026.172
                     506     6 Feb 2026 15:21:00.955     6 Feb 2026 15:53:34.116          1953.161
                     507     6 Feb 2026 17:06:00.775     6 Feb 2026 17:36:28.046          1827.271
                     508     6 Feb 2026 18:48:02.915     6 Feb 2026 19:17:29.925          1767.011
                     509     6 Feb 2026 20:28:44.527     6 Feb 2026 20:58:05.432          1760.905
                     510     6 Feb 2026 22:09:17.670     6 Feb 2026 22:39:23.617          1805.947
                     511     6 Feb 2026 23:51:00.400     7 Feb 2026 00:22:55.821          1915.422
                     512     7 Feb 2026 01:35:53.400     7 Feb 2026 02:09:35.938          2022.538
                     513     7 Feb 2026 03:23:07.471     7 Feb 2026 03:55:26.092          1938.622
                     514     7 Feb 2026 05:07:42.237     7 Feb 2026 05:38:04.709          1822.472
                     515     7 Feb 2026 06:49:33.470     7 Feb 2026 07:19:02.690          1769.221
                     516     7 Feb 2026 08:30:13.674     7 Feb 2026 08:59:41.756          1768.082
                     517     7 Feb 2026 10:10:52.726     7 Feb 2026 10:41:11.515          1818.789
                     518     7 Feb 2026 11:52:52.545     7 Feb 2026 12:25:05.009          1932.464
                     519     7 Feb 2026 13:38:12.317     7 Feb 2026 14:11:51.638          2019.322
                     520     7 Feb 2026 15:25:19.110     7 Feb 2026 15:57:17.186          1918.076
                     521     7 Feb 2026 17:09:31.083     7 Feb 2026 17:39:40.137          1809.054
                     522     7 Feb 2026 18:51:11.303     7 Feb 2026 19:20:33.922          1762.619
                     523     7 Feb 2026 20:31:49.371     7 Feb 2026 21:01:16.317          1766.947
                     524     7 Feb 2026 22:12:34.032     7 Feb 2026 22:42:57.500          1823.469
                     525     7 Feb 2026 23:54:50.031     8 Feb 2026 00:27:10.610          1940.579
                     526     8 Feb 2026 01:40:27.663     8 Feb 2026 02:13:58.731          2011.068
                     527     8 Feb 2026 03:27:16.122     8 Feb 2026 03:59:01.979          1905.857
                     528     8 Feb 2026 05:11:06.655     8 Feb 2026 05:41:12.699          1806.043
                     529     8 Feb 2026 06:52:38.673     8 Feb 2026 07:22:04.438          1765.765
                     530     8 Feb 2026 08:33:17.025     8 Feb 2026 09:02:51.945          1774.920
                     531     8 Feb 2026 10:14:09.587     8 Feb 2026 10:44:46.634          1837.047
                     532     8 Feb 2026 11:56:45.479     8 Feb 2026 12:29:20.646          1955.166
                     533     8 Feb 2026 13:42:45.529     8 Feb 2026 14:16:06.415          2000.887
                     534     8 Feb 2026 15:29:18.930     8 Feb 2026 16:00:45.813          1886.883
                     535     8 Feb 2026 17:12:49.655     8 Feb 2026 17:42:44.173          1794.519
                     536     8 Feb 2026 18:54:13.002     8 Feb 2026 19:23:33.632          1760.631
                     537     8 Feb 2026 20:34:50.933     8 Feb 2026 21:04:26.122          1775.189
                     538     8 Feb 2026 22:15:51.085     8 Feb 2026 22:46:34.192          1843.106
                     539     8 Feb 2026 23:58:45.043     9 Feb 2026 00:31:26.594          1961.551
                     540     9 Feb 2026 01:44:56.305     9 Feb 2026 02:18:05.857          1989.551
                     541     9 Feb 2026 03:31:07.311     9 Feb 2026 04:02:24.297          1876.986
                     542     9 Feb 2026 05:14:20.131     9 Feb 2026 05:44:13.170          1793.039
                     543     9 Feb 2026 06:55:37.595     9 Feb 2026 07:25:02.254          1764.659
                     544     9 Feb 2026 08:36:17.453     9 Feb 2026 09:06:01.418          1783.965
                     545     9 Feb 2026 10:17:27.675     9 Feb 2026 10:48:24.815          1857.139
                     546     9 Feb 2026 12:00:43.839     9 Feb 2026 12:33:35.794          1971.955
                     547     9 Feb 2026 13:47:10.046     9 Feb 2026 14:20:04.962          1974.916
                     548     9 Feb 2026 15:33:02.036     9 Feb 2026 16:04:01.831          1859.794
                     549     9 Feb 2026 17:15:57.875     9 Feb 2026 17:45:41.219          1783.344
                     550     9 Feb 2026 18:57:08.829     9 Feb 2026 19:26:29.787          1760.958
                     551     9 Feb 2026 20:37:49.993     9 Feb 2026 21:07:35.614          1785.621
                     552     9 Feb 2026 22:19:09.856     9 Feb 2026 22:50:14.109          1864.254
                     553    10 Feb 2026 00:02:45.048    10 Feb 2026 00:35:40.251          1975.203
                     554    10 Feb 2026 01:49:13.935    10 Feb 2026 02:21:56.479          1962.544
                     555    10 Feb 2026 03:34:42.619    10 Feb 2026 04:05:34.781          1852.162
                     556    10 Feb 2026 05:17:23.874    10 Feb 2026 05:47:07.087          1783.213
                     557    10 Feb 2026 06:58:31.000    10 Feb 2026 07:27:56.820          1765.821
                     558    10 Feb 2026 08:39:15.726    10 Feb 2026 09:09:10.908          1795.181
                     559    10 Feb 2026 10:20:48.021    10 Feb 2026 10:52:06.194          1878.173
                     560    10 Feb 2026 12:04:46.384    10 Feb 2026 12:37:46.498          1980.115
                     561    10 Feb 2026 13:51:21.604    10 Feb 2026 14:23:47.071          1945.467
                     562    10 Feb 2026 15:36:29.774    10 Feb 2026 16:07:06.822          1837.048
                     563    10 Feb 2026 17:18:56.927    10 Feb 2026 17:48:32.130          1775.203
                     564    10 Feb 2026 18:59:59.498    10 Feb 2026 19:29:22.998          1763.500
                     565    10 Feb 2026 20:40:47.276    10 Feb 2026 21:10:45.475          1798.199
                     566    10 Feb 2026 22:22:31.289    10 Feb 2026 22:53:57.055          1885.766
                     567    11 Feb 2026 00:06:47.696    11 Feb 2026 00:39:47.403          1979.707
                     568    11 Feb 2026 01:53:17.594    11 Feb 2026 02:25:30.952          1933.358
                     569    11 Feb 2026 03:38:03.388    11 Feb 2026 04:08:34.892          1831.504
                     570    11 Feb 2026 05:20:19.004    11 Feb 2026 05:49:55.233          1776.230
                     571    11 Feb 2026 07:01:19.642    11 Feb 2026 07:30:48.744          1769.101
                     572    11 Feb 2026 08:42:12.683    11 Feb 2026 09:12:21.082          1808.398
                     573    11 Feb 2026 10:24:11.415    11 Feb 2026 10:55:50.204          1898.788
                     574    11 Feb 2026 12:08:50.001    11 Feb 2026 12:41:48.693          1978.692
                     575    11 Feb 2026 13:55:17.911    11 Feb 2026 14:27:13.634          1915.723
                     576    11 Feb 2026 15:39:43.753    11 Feb 2026 16:10:02.158          1818.405
                     577    11 Feb 2026 17:21:47.952    11 Feb 2026 17:51:17.675          1769.724
                     578    11 Feb 2026 19:02:45.847    11 Feb 2026 19:32:13.926          1768.079
                     579    11 Feb 2026 20:43:43.650    11 Feb 2026 21:13:56.367          1812.717
                     580    11 Feb 2026 22:25:55.905    11 Feb 2026 22:57:42.112          1906.207
                     581    12 Feb 2026 00:10:49.724    12 Feb 2026 00:43:44.354          1974.630
                     582    12 Feb 2026 01:57:05.510    12 Feb 2026 02:28:50.519          1905.009
                     583    12 Feb 2026 03:41:11.368    12 Feb 2026 04:11:25.977          1814.609
                     584    12 Feb 2026 05:23:06.667    12 Feb 2026 05:52:38.391          1771.724
                     585    12 Feb 2026 07:04:04.281    12 Feb 2026 07:33:38.721          1774.440
                     586    12 Feb 2026 08:45:09.136    12 Feb 2026 09:15:32.579          1823.444
                     587    12 Feb 2026 10:27:38.235    12 Feb 2026 10:59:35.598          1917.363
                     588    12 Feb 2026 12:12:51.301    12 Feb 2026 12:45:39.283          1967.981
                     589    12 Feb 2026 13:58:58.088    12 Feb 2026 14:30:26.128          1888.041
                     590    12 Feb 2026 15:42:45.869    12 Feb 2026 16:12:49.108          1803.239
                     591    12 Feb 2026 17:24:31.995    12 Feb 2026 17:53:58.644          1766.649
                     592    12 Feb 2026 19:05:28.585    12 Feb 2026 19:35:03.299          1774.714
                     593    12 Feb 2026 20:46:39.942    12 Feb 2026 21:17:08.896          1828.954
                     594    12 Feb 2026 22:29:23.950    12 Feb 2026 23:01:27.670          1923.720
                     595    13 Feb 2026 00:14:47.511    13 Feb 2026 00:47:28.622          1961.111
                     596    13 Feb 2026 02:00:37.723    13 Feb 2026 02:31:56.756          1879.033
                     597    13 Feb 2026 03:44:08.234    13 Feb 2026 04:14:09.231          1800.997
                     598    13 Feb 2026 05:25:47.777    13 Feb 2026 05:55:17.343          1769.566
                     599    13 Feb 2026 07:06:45.693    13 Feb 2026 07:36:27.483          1781.790
                     600    13 Feb 2026 08:48:05.980    13 Feb 2026 09:18:45.912          1839.932
                     601    13 Feb 2026 10:31:08.542    13 Feb 2026 11:03:20.332          1931.790
