Simulation/Extra/Inmarsat2.txt

                                                                            22 Jul 2024 19:54:07
Satellite-NOVASAT-16U-Sensor-LargeAngle-To-Satellite-Inmarsat4F3_33278:  Access Summary Report


LargeAngle-To-Inmarsat4F3_33278
-------------------------------
                  Access       Start Time (UTCG)           Stop Time (UTCG)       Duration (sec)
                  ------    -----------------------    -----------------------    --------------
                       1    1 Jan 2026 10:22:01.508    1 Jan 2026 10:51:49.635          1788.127
                       2    1 Jan 2026 12:03:40.161    1 Jan 2026 12:33:18.291          1778.130
                       3    1 Jan 2026 13:45:05.496    1 Jan 2026 14:15:14.476          1808.980
                       4    1 Jan 2026 15:27:22.518    1 Jan 2026 15:58:43.404          1880.886
                       5    1 Jan 2026 17:11:44.252    1 Jan 2026 17:44:12.815          1948.563
                       6    1 Jan 2026 18:57:42.458    1 Jan 2026 19:29:36.765          1914.307
                       7    1 Jan 2026 20:42:23.389    1 Jan 2026 21:12:57.869          1834.480
                       8    1 Jan 2026 22:25:02.200    1 Jan 2026 22:54:49.632          1787.432
                       9    2 Jan 2026 00:06:35.247    2 Jan 2026 00:36:17.277          1782.030
                      10    2 Jan 2026 01:48:04.093    2 Jan 2026 02:18:22.015          1817.923
                      11    2 Jan 2026 03:30:36.628    2 Jan 2026 04:02:09.102          1892.474
                      12    2 Jan 2026 05:15:22.613    2 Jan 2026 05:47:49.084          1946.472
                      13    2 Jan 2026 07:01:21.580    2 Jan 2026 07:32:56.984          1895.403
                      14    2 Jan 2026 08:45:40.978    2 Jan 2026 09:15:59.806          1818.828
                      15    2 Jan 2026 10:28:03.359    2 Jan 2026 10:57:43.287          1779.928
                      16    2 Jan 2026 12:09:29.764    2 Jan 2026 12:39:12.201          1782.437
                      17    2 Jan 2026 13:51:01.593    2 Jan 2026 14:21:28.598          1827.005
                      18    2 Jan 2026 15:33:48.921    2 Jan 2026 16:05:37.323          1908.403
                      19    2 Jan 2026 17:18:54.775    2 Jan 2026 17:51:27.476          1952.700
                      20    2 Jan 2026 19:04:48.458    2 Jan 2026 19:36:18.431          1889.974
                      21    2 Jan 2026 20:48:48.510    2 Jan 2026 21:19:03.954          1815.444
                      22    2 Jan 2026 22:30:58.877    2 Jan 2026 23:00:39.993          1781.116
                      23    3 Jan 2026 00:12:22.372    3 Jan 2026 00:42:10.687          1788.315
                      24    3 Jan 2026 01:54:00.987    3 Jan 2026 02:24:38.929          1837.941
                      25    3 Jan 2026 03:37:08.180    3 Jan 2026 04:09:06.968          1918.788
                      26    3 Jan 2026 05:22:35.881    3 Jan 2026 05:54:59.320          1943.439
                      27    3 Jan 2026 07:08:20.096    3 Jan 2026 07:39:30.125          1870.029
                      28    3 Jan 2026 08:51:58.323    3 Jan 2026 09:22:00.035          1801.712
                      29    3 Jan 2026 10:33:55.144    3 Jan 2026 11:03:30.699          1775.556
                      30    3 Jan 2026 12:15:14.750    3 Jan 2026 12:45:05.531          1790.780
                      31    3 Jan 2026 13:56:59.533    3 Jan 2026 14:27:48.984          1849.451
                      32    3 Jan 2026 15:40:25.083    3 Jan 2026 16:12:39.177          1934.094
                      33    3 Jan 2026 17:26:07.884    3 Jan 2026 17:58:32.401          1944.517
                      34    3 Jan 2026 19:11:38.584    3 Jan 2026 19:42:43.282          1864.697
                      35    3 Jan 2026 20:54:58.593    3 Jan 2026 21:24:58.768          1800.176
                      36    3 Jan 2026 22:36:46.278    3 Jan 2026 23:06:24.884          1778.606
                      37    4 Jan 2026 00:18:05.675    4 Jan 2026 00:48:04.388          1798.713
                      38    4 Jan 2026 02:00:00.928    4 Jan 2026 02:31:03.036          1862.109
                      39    4 Jan 2026 03:43:50.287    4 Jan 2026 04:16:11.228          1940.941
                      40    4 Jan 2026 05:29:48.264    4 Jan 2026 06:01:57.205          1928.941
                      41    4 Jan 2026 07:15:01.648    4 Jan 2026 07:45:46.960          1845.313
                      42    4 Jan 2026 08:58:01.407    4 Jan 2026 09:27:49.881          1788.474

Statistics
----------
Min Duration          29    3 Jan 2026 10:33:55.144    3 Jan 2026 11:03:30.699          1775.556
Max Duration          19    2 Jan 2026 17:18:54.775    2 Jan 2026 17:51:27.476          1952.700
Mean Duration                                                                           1849.848
Total Duration                                                                         77693.633
