Simulation/Extra/inmarsat3.txt

                                                                              29 Jul 2024 18:37:06
Satellite-NOVASAT-16U-Sensor-LargeAngle-To-Satellite-Inmarsat4F4_39215:  Access Summary Report


LargeAngle-To-Inmarsat4F4_39215
-------------------------------
                  Access        Start Time (UTCG)           Stop Time (UTCG)        Duration (sec)
                  ------    ------------------------    ------------------------    --------------
                       1     1 Jan 2026 11:05:53.335     1 Jan 2026 11:36:27.351          1834.017
                       2     1 Jan 2026 12:48:31.422     1 Jan 2026 13:18:18.590          1787.168
                       3     1 Jan 2026 14:30:04.527     1 Jan 2026 14:59:46.219          1781.692
                       4     1 Jan 2026 16:11:33.953     1 Jan 2026 16:41:51.417          1817.464
                       5     1 Jan 2026 17:54:07.342     1 Jan 2026 18:25:38.859          1891.517
                       6     1 Jan 2026 19:38:53.067     1 Jan 2026 20:11:17.930          1944.863
                       7     1 Jan 2026 21:24:49.830     1 Jan 2026 21:56:24.478          1894.648
                       8     1 Jan 2026 23:09:07.827     1 Jan 2026 23:39:27.067          1819.240
                       9     2 Jan 2026 00:51:30.640     2 Jan 2026 01:21:11.131          1780.492
                      10     2 Jan 2026 02:32:58.030     2 Jan 2026 03:02:40.783          1782.752
                      11     2 Jan 2026 04:14:30.953     2 Jan 2026 04:44:57.689          1826.736
                      12     2 Jan 2026 05:57:18.806     2 Jan 2026 06:29:05.574          1906.768
                      13     2 Jan 2026 07:42:22.688     2 Jan 2026 08:14:52.974          1950.286
                      14     2 Jan 2026 09:28:13.269     2 Jan 2026 09:59:42.567          1889.298
                      15     2 Jan 2026 11:12:13.028     2 Jan 2026 11:42:28.862          1815.835
                      16     2 Jan 2026 12:54:24.929     2 Jan 2026 13:24:06.312          1781.383
                      17     2 Jan 2026 14:35:50.301     2 Jan 2026 15:05:38.218          1787.916
                      18     2 Jan 2026 16:17:30.524     2 Jan 2026 16:48:06.835          1836.311
                      19     2 Jan 2026 18:00:37.653     2 Jan 2026 18:32:32.632          1914.979
                      20     2 Jan 2026 19:46:01.266     2 Jan 2026 20:18:21.056          1939.790
                      21     2 Jan 2026 21:31:41.544     2 Jan 2026 22:02:51.336          1869.792
                      22     2 Jan 2026 23:15:20.382     2 Jan 2026 23:45:23.226          1802.844
                      23     3 Jan 2026 00:57:19.731     3 Jan 2026 01:26:56.238          1776.507
                      24     3 Jan 2026 02:38:41.860     3 Jan 2026 03:08:32.777          1790.917
                      25     3 Jan 2026 04:20:28.485     3 Jan 2026 04:51:16.173          1847.688
                      26     3 Jan 2026 06:03:53.039     3 Jan 2026 06:36:02.287          1929.248
                      27     3 Jan 2026 07:49:29.642     3 Jan 2026 08:21:50.486          1940.844
                      28     3 Jan 2026 09:34:56.979     3 Jan 2026 10:06:01.632          1864.653
                      29     3 Jan 2026 11:18:18.821     3 Jan 2026 11:48:20.117          1801.296
                      30     3 Jan 2026 13:00:10.002     3 Jan 2026 13:29:49.205          1779.203
                      31     3 Jan 2026 14:41:32.765     3 Jan 2026 15:11:30.645          1797.880
                      32     3 Jan 2026 16:23:30.075     3 Jan 2026 16:54:28.507          1858.432
                      33     3 Jan 2026 18:07:16.896     3 Jan 2026 18:39:30.689          1933.793
                      34     3 Jan 2026 19:53:06.650     3 Jan 2026 20:25:11.538          1924.887
                      35     3 Jan 2026 21:38:16.918     3 Jan 2026 22:09:02.956          1846.038
                      36     3 Jan 2026 23:21:19.666     3 Jan 2026 23:51:09.978          1790.312
                      37     4 Jan 2026 01:03:01.142     4 Jan 2026 01:32:37.223          1776.081
                      38     4 Jan 2026 02:44:23.213     4 Jan 2026 03:14:26.012          1802.799
                      39     4 Jan 2026 04:26:29.983     4 Jan 2026 04:57:41.527          1871.544
                      40     4 Jan 2026 06:10:35.770     4 Jan 2026 06:43:01.269          1945.499
                      41     4 Jan 2026 07:56:31.057     4 Jan 2026 08:28:33.640          1922.584
                      42     4 Jan 2026 09:41:24.091     4 Jan 2026 10:12:06.220          1842.129
                      43     4 Jan 2026 11:24:12.308     4 Jan 2026 11:54:02.758          1790.450
                      44     4 Jan 2026 13:05:48.236     4 Jan 2026 13:35:28.639          1780.404
                      45     4 Jan 2026 14:47:13.532     4 Jan 2026 15:17:25.077          1811.545
                      46     4 Jan 2026 16:29:34.553     4 Jan 2026 17:00:57.388          1882.834
                      47     4 Jan 2026 18:14:04.280     4 Jan 2026 18:46:28.639          1944.360
                      48     4 Jan 2026 20:00:03.212     4 Jan 2026 20:31:46.665          1903.453
                      49     4 Jan 2026 21:44:35.993     4 Jan 2026 22:15:00.919          1824.926
                      50     4 Jan 2026 23:27:07.559     4 Jan 2026 23:56:48.889          1781.330
                      51     5 Jan 2026 01:08:36.329     5 Jan 2026 01:38:15.472          1779.143
                      52     5 Jan 2026 02:50:03.586     5 Jan 2026 03:20:22.167          1818.581
                      53     5 Jan 2026 04:32:37.432     5 Jan 2026 05:04:14.429          1896.998
                      54     5 Jan 2026 06:17:25.565     5 Jan 2026 06:49:57.515          1951.950
                      55     5 Jan 2026 08:03:21.356     5 Jan 2026 08:35:00.796          1899.440
                      56     5 Jan 2026 09:47:35.474     5 Jan 2026 10:17:58.063          1822.590
                      57     5 Jan 2026 11:29:55.099     5 Jan 2026 11:59:38.402          1783.303
                      58     5 Jan 2026 13:11:20.953     5 Jan 2026 13:41:06.171          1785.219
                      59     5 Jan 2026 14:52:54.363     5 Jan 2026 15:23:23.397          1829.034
                      60     5 Jan 2026 16:35:46.277     5 Jan 2026 17:07:33.680          1907.403
                      61     5 Jan 2026 18:20:56.835     5 Jan 2026 18:53:21.124          1944.289
                      62     5 Jan 2026 20:06:46.819     5 Jan 2026 20:38:05.692          1878.873
                      63     5 Jan 2026 21:50:39.762     5 Jan 2026 22:20:47.103          1807.341
                      64     5 Jan 2026 23:32:45.635     6 Jan 2026 00:02:21.601          1775.967
                      65     6 Jan 2026 01:14:06.876     6 Jan 2026 01:43:52.621          1785.745
                      66     6 Jan 2026 02:55:45.041     6 Jan 2026 03:26:23.138          1838.097
                      67     6 Jan 2026 04:38:52.717     6 Jan 2026 05:10:54.254          1921.537
                      68     6 Jan 2026 06:24:18.371     6 Jan 2026 06:56:45.591          1947.220
                      69     6 Jan 2026 08:09:57.058     6 Jan 2026 08:41:12.018          1874.960
                      70     6 Jan 2026 09:53:32.392     6 Jan 2026 10:23:39.020          1806.628
                      71     6 Jan 2026 11:35:28.989     6 Jan 2026 12:05:08.544          1779.555
                      72     6 Jan 2026 13:16:49.729     6 Jan 2026 13:46:43.321          1793.592
                      73     6 Jan 2026 14:58:37.116     6 Jan 2026 15:29:27.250          1850.134
                      74     6 Jan 2026 16:42:06.583     6 Jan 2026 17:14:15.801          1929.218
                      75     6 Jan 2026 18:27:49.658     6 Jan 2026 19:00:03.050          1933.392
                      76     6 Jan 2026 20:13:14.657     6 Jan 2026 20:44:09.181          1854.524
                      77     6 Jan 2026 21:56:29.946     6 Jan 2026 22:26:23.158          1793.212
                      78     6 Jan 2026 23:38:15.402     7 Jan 2026 00:07:49.453          1774.051
                      79     7 Jan 2026 01:19:34.042     7 Jan 2026 01:49:30.114          1796.072
                      80     7 Jan 2026 03:01:29.262     7 Jan 2026 03:32:30.416          1861.154
                      81     7 Jan 2026 04:45:16.904     7 Jan 2026 05:17:38.416          1941.512
                      82     7 Jan 2026 06:31:08.303     7 Jan 2026 07:03:20.947          1932.644
                      83     7 Jan 2026 08:16:16.842     7 Jan 2026 08:47:08.187          1851.345
                      84     7 Jan 2026 09:59:16.316     7 Jan 2026 10:29:10.635          1794.318
                      85     7 Jan 2026 11:40:55.175     7 Jan 2026 12:10:34.526          1779.351
                      86     7 Jan 2026 13:22:15.904     7 Jan 2026 13:52:21.656          1805.752
                      87     7 Jan 2026 15:04:23.877     7 Jan 2026 15:35:38.025          1874.148
                      88     7 Jan 2026 16:48:35.725     7 Jan 2026 17:21:00.162          1944.437
                      89     7 Jan 2026 18:34:36.563     7 Jan 2026 19:06:30.721          1914.158
                      90     7 Jan 2026 20:19:26.076     7 Jan 2026 20:49:58.404          1832.329
                      91     7 Jan 2026 22:02:07.897     7 Jan 2026 22:31:50.707          1782.810
                      92     7 Jan 2026 23:43:38.298     8 Jan 2026 00:13:13.873          1775.576
                      93     8 Jan 2026 01:24:59.511     8 Jan 2026 01:55:09.684          1810.173
                      94     8 Jan 2026 03:07:18.459     8 Jan 2026 03:38:45.144          1886.685
                      95     8 Jan 2026 04:51:49.187     8 Jan 2026 05:24:22.462          1953.275
                      96     8 Jan 2026 06:37:49.738     8 Jan 2026 07:09:40.990          1911.252
                      97     8 Jan 2026 08:22:20.447     8 Jan 2026 08:52:50.949          1830.502
                      98     8 Jan 2026 10:04:49.016     8 Jan 2026 10:34:34.516          1785.500
                      99     8 Jan 2026 11:46:15.258     8 Jan 2026 12:15:57.775          1782.517
                     100     8 Jan 2026 13:27:41.176     8 Jan 2026 13:58:02.908          1821.733
                     101     8 Jan 2026 15:10:16.712     8 Jan 2026 15:41:56.451          1899.739
                     102     8 Jan 2026 16:55:12.202     8 Jan 2026 17:27:41.800          1949.597
                     103     8 Jan 2026 18:41:12.133     8 Jan 2026 19:12:42.600          1890.467
                     104     8 Jan 2026 20:25:22.026     8 Jan 2026 20:55:35.074          1813.049
                     105     8 Jan 2026 22:07:35.421     8 Jan 2026 22:37:11.282          1775.861
                     106     8 Jan 2026 23:48:55.718     9 Jan 2026 00:18:36.322          1780.604
                     107     9 Jan 2026 01:30:24.864     9 Jan 2026 02:00:53.145          1828.281
                     108     9 Jan 2026 03:13:14.792     9 Jan 2026 03:45:07.587          1912.795
                     109     9 Jan 2026 04:58:26.941     9 Jan 2026 05:31:01.056          1954.115
                     110     9 Jan 2026 06:44:18.218     9 Jan 2026 07:15:45.006          1886.789
                     111     9 Jan 2026 08:28:09.128     9 Jan 2026 08:58:22.064          1812.935
                     112     9 Jan 2026 10:10:11.941     9 Jan 2026 10:39:52.231          1780.290
                     113     9 Jan 2026 11:51:30.572     9 Jan 2026 12:21:19.899          1789.327
                     114     9 Jan 2026 13:33:07.429     9 Jan 2026 14:03:49.009          1841.580
                     115     9 Jan 2026 15:16:17.846     9 Jan 2026 15:48:22.000          1924.154
                     116     9 Jan 2026 17:01:51.741     9 Jan 2026 17:34:15.291          1943.550
                     117     9 Jan 2026 18:47:33.195     9 Jan 2026 19:18:38.686          1865.492
                     118     9 Jan 2026 20:31:03.553     9 Jan 2026 21:01:00.979          1797.426
                     119     9 Jan 2026 22:12:54.012     9 Jan 2026 22:42:26.401          1772.389
                     120     9 Jan 2026 23:54:09.188    10 Jan 2026 00:23:58.393          1789.205
                     121    10 Jan 2026 01:35:52.166    10 Jan 2026 02:06:42.310          1850.144
                     122    10 Jan 2026 03:19:19.739    10 Jan 2026 03:51:36.179          1936.440
                     123    10 Jan 2026 05:05:05.218    10 Jan 2026 05:37:28.992          1943.774
                     124    10 Jan 2026 06:50:31.108    10 Jan 2026 07:21:33.605          1862.497
                     125    10 Jan 2026 08:33:44.293    10 Jan 2026 09:03:43.176          1798.883
                     126    10 Jan 2026 10:15:26.729    10 Jan 2026 10:45:05.095          1778.366
                     127    10 Jan 2026 11:56:42.580    10 Jan 2026 12:26:42.338          1799.758
                     128    10 Jan 2026 13:38:36.510    10 Jan 2026 14:09:41.474          1864.964
                     129    10 Jan 2026 15:22:28.196    10 Jan 2026 15:54:52.114          1943.919
                     130    10 Jan 2026 17:08:28.541    10 Jan 2026 17:40:36.110          1927.569
                     131    10 Jan 2026 18:53:38.073    10 Jan 2026 19:24:19.906          1841.833
                     132    10 Jan 2026 20:36:32.372    10 Jan 2026 21:06:17.610          1785.238
                     133    10 Jan 2026 22:18:05.009    10 Jan 2026 22:47:37.306          1772.297
                     134    10 Jan 2026 23:59:19.935    11 Jan 2026 00:29:21.564          1801.629
                     135    11 Jan 2026 01:41:23.232    11 Jan 2026 02:12:38.602          1875.369
                     136    11 Jan 2026 03:25:33.915    11 Jan 2026 03:58:07.385          1953.470
                     137    11 Jan 2026 05:11:37.686    11 Jan 2026 05:43:42.609          1924.923
                     138    11 Jan 2026 06:56:28.000    11 Jan 2026 07:27:07.988          1839.987
                     139    11 Jan 2026 08:39:07.375    11 Jan 2026 09:08:55.795          1788.420
                     140    11 Jan 2026 10:20:34.536    11 Jan 2026 10:50:14.478          1779.943
                     141    11 Jan 2026 12:01:52.708    11 Jan 2026 12:32:06.805          1814.097
                     142    11 Jan 2026 13:44:10.729    11 Jan 2026 14:15:41.617          1890.888
                     143    11 Jan 2026 15:28:47.289    11 Jan 2026 16:01:22.361          1955.072
                     144    11 Jan 2026 17:14:56.741    11 Jan 2026 17:46:41.635          1904.894
                     145    11 Jan 2026 18:59:26.833    11 Jan 2026 19:29:47.812          1820.980
                     146    11 Jan 2026 20:41:49.916    11 Jan 2026 21:11:26.587          1776.671
                     147    11 Jan 2026 22:23:09.884    11 Jan 2026 22:52:45.499          1775.614
                     148    12 Jan 2026 00:04:29.783    12 Jan 2026 00:34:47.746          1817.963
                     149    12 Jan 2026 01:47:00.481    12 Jan 2026 02:18:42.956          1902.475
                     150    12 Jan 2026 03:31:55.611    12 Jan 2026 04:04:36.104          1960.492
                     151    12 Jan 2026 05:17:59.274    12 Jan 2026 05:49:40.381          1901.108
                     152    12 Jan 2026 07:02:09.307    12 Jan 2026 07:32:29.969          1820.662
                     153    12 Jan 2026 08:44:20.146    12 Jan 2026 09:14:01.521          1781.375
                     154    12 Jan 2026 10:25:36.976    12 Jan 2026 10:55:21.889          1784.913
                     155    12 Jan 2026 12:07:02.788    12 Jan 2026 12:37:35.169          1832.381
                     156    12 Jan 2026 13:49:52.237    12 Jan 2026 14:21:49.757          1917.520
                     157    12 Jan 2026 15:35:12.595    12 Jan 2026 16:07:47.338          1954.743
                     158    12 Jan 2026 17:21:11.627    12 Jan 2026 17:52:31.234          1879.607
                     159    12 Jan 2026 19:05:00.840    12 Jan 2026 19:35:04.147          1803.307
                     160    12 Jan 2026 20:46:57.917    12 Jan 2026 21:16:29.358          1771.441
                     161    12 Jan 2026 22:28:09.996    12 Jan 2026 22:57:52.436          1782.441
                     162    13 Jan 2026 00:09:40.350    13 Jan 2026 00:40:18.760          1838.410
                     163    13 Jan 2026 01:52:45.962    13 Jan 2026 02:24:54.988          1929.026
                     164    13 Jan 2026 03:38:21.031    13 Jan 2026 04:10:56.787          1955.756
                     165    13 Jan 2026 05:24:06.435    13 Jan 2026 05:55:22.274          1875.839
                     166    13 Jan 2026 07:07:36.478    13 Jan 2026 07:37:41.178          1804.700
                     167    13 Jan 2026 08:49:23.942    13 Jan 2026 09:19:01.745          1777.803
                     168    13 Jan 2026 10:30:35.248    13 Jan 2026 11:00:28.835          1793.587
                     169    13 Jan 2026 12:12:14.661    13 Jan 2026 12:43:09.288          1854.626
                     170    13 Jan 2026 13:55:43.075    13 Jan 2026 14:28:04.513          1941.438
                     171    13 Jan 2026 15:41:38.637    13 Jan 2026 16:14:01.735          1943.098
                     172    13 Jan 2026 17:27:10.961    13 Jan 2026 17:58:05.399          1854.438
                     173    13 Jan 2026 19:10:21.186    13 Jan 2026 19:40:10.536          1789.349
                     174    13 Jan 2026 20:51:57.656    13 Jan 2026 21:21:27.294          1769.638
                     175    13 Jan 2026 22:33:06.726    13 Jan 2026 23:02:59.673          1792.947
                     176    14 Jan 2026 00:14:53.770    14 Jan 2026 00:45:56.388          1862.618
                     177    14 Jan 2026 01:58:40.863    14 Jan 2026 02:31:12.196          1951.333
                     178    14 Jan 2026 03:44:44.359    14 Jan 2026 04:17:04.712          1940.352
                     179    14 Jan 2026 05:29:57.419    14 Jan 2026 06:00:49.302          1851.883
                     180    14 Jan 2026 07:12:50.890    14 Jan 2026 07:42:43.187          1792.298
                     181    14 Jan 2026 08:54:20.253    14 Jan 2026 09:23:57.754          1777.501
                     182    14 Jan 2026 10:35:30.871    14 Jan 2026 11:05:36.842          1805.971
                     183    14 Jan 2026 12:17:30.393    14 Jan 2026 12:48:50.663          1880.270
                     184    14 Jan 2026 14:01:43.665    14 Jan 2026 14:34:22.397          1958.732
                     185    14 Jan 2026 15:47:59.239    14 Jan 2026 16:20:01.850          1922.611
                     186    14 Jan 2026 17:32:53.935    14 Jan 2026 18:03:25.437          1831.502
                     187    14 Jan 2026 19:15:29.709    14 Jan 2026 19:45:08.472          1778.763
                     188    14 Jan 2026 20:56:50.564    14 Jan 2026 21:26:21.680          1771.116
                     189    14 Jan 2026 22:38:01.471    14 Jan 2026 23:08:08.839          1807.368
                     190    15 Jan 2026 00:20:12.003    15 Jan 2026 00:51:41.996          1889.993
                     191    15 Jan 2026 02:04:45.200    15 Jan 2026 02:37:30.197          1964.996
                     192    15 Jan 2026 03:50:59.278    15 Jan 2026 04:22:57.226          1917.948
                     193    15 Jan 2026 05:35:32.628    15 Jan 2026 06:06:02.970          1830.342
                     194    15 Jan 2026 07:17:54.148    15 Jan 2026 07:47:37.506          1783.358
                     195    15 Jan 2026 08:59:10.310    15 Jan 2026 09:28:50.957          1780.647
                     196    15 Jan 2026 10:40:25.335    15 Jan 2026 11:10:47.762          1822.427
                     197    15 Jan 2026 12:22:52.435    15 Jan 2026 12:54:40.478          1908.043
                     198    15 Jan 2026 14:07:52.869    15 Jan 2026 14:40:38.287          1965.418
                     199    15 Jan 2026 15:54:08.867    15 Jan 2026 16:25:46.041          1897.175
                     200    15 Jan 2026 17:38:21.318    15 Jan 2026 18:08:33.060          1811.742
                     201    15 Jan 2026 19:20:27.779    15 Jan 2026 19:49:59.524          1771.744
                     202    15 Jan 2026 21:01:37.984    15 Jan 2026 21:31:14.049          1776.066
                     203    15 Jan 2026 22:42:56.050    15 Jan 2026 23:13:21.953          1825.903
                     204    16 Jan 2026 00:25:37.735    16 Jan 2026 00:57:36.239          1918.505
                     205    16 Jan 2026 02:10:56.248    16 Jan 2026 02:43:43.359          1967.111
                     206    16 Jan 2026 03:57:01.476    16 Jan 2026 04:28:33.648          1892.173
                     207    16 Jan 2026 05:40:52.819    16 Jan 2026 06:11:05.148          1812.329
                     208    16 Jan 2026 07:22:47.847    16 Jan 2026 07:52:25.695          1777.848
                     209    16 Jan 2026 09:03:55.651    16 Jan 2026 09:33:42.917          1787.266
                     210    16 Jan 2026 10:45:20.612    16 Jan 2026 11:16:03.554          1842.942
                     211    16 Jan 2026 12:28:23.024    16 Jan 2026 13:00:38.489          1935.465
                     212    16 Jan 2026 14:14:06.835    16 Jan 2026 14:46:46.460          1959.625
                     213    16 Jan 2026 16:00:03.638    16 Jan 2026 16:31:14.383          1870.745
                     214    16 Jan 2026 17:43:34.530    16 Jan 2026 18:13:29.995          1795.465
                     215    16 Jan 2026 19:25:17.115    16 Jan 2026 19:54:45.079          1767.965
                     216    16 Jan 2026 21:06:21.324    16 Jan 2026 21:36:05.852          1784.528
                     217    16 Jan 2026 22:47:52.222    16 Jan 2026 23:18:40.834          1848.611
                     218    17 Jan 2026 00:31:12.674    17 Jan 2026 01:03:37.929          1945.255
                     219    17 Jan 2026 02:17:09.219    17 Jan 2026 02:49:46.154          1956.935
                     220    17 Jan 2026 04:02:48.076    17 Jan 2026 04:33:54.501          1866.425
                     221    17 Jan 2026 05:45:59.671    17 Jan 2026 06:15:57.327          1797.656
                     222    17 Jan 2026 07:27:33.355    17 Jan 2026 07:57:08.969          1775.614
                     223    17 Jan 2026 09:08:37.446    17 Jan 2026 09:38:35.036          1797.589
                     224    17 Jan 2026 10:50:18.464    17 Jan 2026 11:21:25.998          1867.534
                     225    17 Jan 2026 12:34:03.902    17 Jan 2026 13:06:42.487          1958.585
                     226    17 Jan 2026 14:20:19.164    17 Jan 2026 14:52:42.033          1942.869
                     227    17 Jan 2026 16:05:42.310    17 Jan 2026 16:36:27.768          1845.458
                     228    17 Jan 2026 17:48:34.922    17 Jan 2026 18:18:17.741          1782.818
                     229    17 Jan 2026 19:29:58.791    17 Jan 2026 19:59:26.393          1767.602
                     230    17 Jan 2026 21:11:01.812    17 Jan 2026 21:40:58.649          1796.837
                     231    17 Jan 2026 22:52:52.118    17 Jan 2026 23:24:07.298          1875.180
                     232    18 Jan 2026 00:36:57.976    18 Jan 2026 01:09:43.743          1965.767
                     233    18 Jan 2026 02:23:17.517    18 Jan 2026 02:55:34.576          1937.059
                     234    18 Jan 2026 04:08:18.398    18 Jan 2026 04:39:01.152          1842.755
                     235    18 Jan 2026 05:50:54.484    18 Jan 2026 06:20:41.133          1786.648
                     236    18 Jan 2026 07:32:11.995    18 Jan 2026 08:01:48.733          1776.738
                     237    18 Jan 2026 09:13:17.255    18 Jan 2026 09:43:29.071          1811.816
                     238    18 Jan 2026 10:55:21.368    18 Jan 2026 11:26:56.716          1895.347
                     239    18 Jan 2026 12:39:55.048    18 Jan 2026 13:12:48.117          1973.070
                     240    18 Jan 2026 14:26:23.777    18 Jan 2026 14:58:22.198          1918.421
                     241    18 Jan 2026 16:11:04.628    18 Jan 2026 16:41:27.873          1823.244
                     242    18 Jan 2026 17:53:24.272    18 Jan 2026 18:22:57.906          1773.634
                     243    18 Jan 2026 19:34:34.453    18 Jan 2026 20:04:04.920          1770.467
                     244    18 Jan 2026 21:15:41.187    18 Jan 2026 21:45:54.323          1813.136
                     245    18 Jan 2026 22:57:58.115    18 Jan 2026 23:29:42.648          1904.533
                     246    19 Jan 2026 00:42:52.743    19 Jan 2026 01:15:48.524          1975.781
                     247    19 Jan 2026 02:29:15.282    19 Jan 2026 03:01:06.963          1911.681
                     248    19 Jan 2026 04:13:33.219    19 Jan 2026 04:43:55.366          1822.148
                     249    19 Jan 2026 05:55:39.111    19 Jan 2026 06:25:18.062          1778.950
                     250    19 Jan 2026 07:36:45.195    19 Jan 2026 08:06:26.411          1781.215
                     251    19 Jan 2026 09:17:56.724    19 Jan 2026 09:48:26.934          1830.210
                     252    19 Jan 2026 11:00:31.710    19 Jan 2026 11:32:36.592          1924.881
                     253    19 Jan 2026 12:45:54.644    19 Jan 2026 13:18:49.675          1975.031
                     254    19 Jan 2026 14:32:15.346    19 Jan 2026 15:03:46.188          1890.842
                     255    19 Jan 2026 16:16:12.070    19 Jan 2026 16:46:16.431          1804.361
                     256    19 Jan 2026 17:58:04.067    19 Jan 2026 18:27:31.908          1767.841
                     257    19 Jan 2026 19:39:05.253    19 Jan 2026 20:08:42.083          1776.830
                     258    19 Jan 2026 21:20:21.054    19 Jan 2026 21:50:54.832          1833.778
                     259    19 Jan 2026 23:03:12.761    19 Jan 2026 23:35:27.119          1934.358
                     260    20 Jan 2026 00:48:53.333    20 Jan 2026 01:21:46.235          1972.902
                     261    20 Jan 2026 02:34:58.855    20 Jan 2026 03:06:23.230          1884.376
                     262    20 Jan 2026 04:18:33.753    20 Jan 2026 04:48:38.885          1805.132
                     263    20 Jan 2026 06:00:14.826    20 Jan 2026 06:29:49.538          1774.711
                     264    20 Jan 2026 07:41:14.199    20 Jan 2026 08:11:03.513          1789.314
                     265    20 Jan 2026 09:22:37.733    20 Jan 2026 09:53:30.634          1852.901
                     266    20 Jan 2026 11:05:51.956    20 Jan 2026 11:38:24.776          1952.820
                     267    20 Jan 2026 12:51:57.266    20 Jan 2026 13:24:41.314          1964.049
                     268    20 Jan 2026 14:37:51.119    20 Jan 2026 15:08:54.549          1863.430
                     269    20 Jan 2026 16:21:05.849    20 Jan 2026 16:50:55.127          1789.278
                     270    20 Jan 2026 18:02:35.748    20 Jan 2026 18:32:01.101          1765.353
                     271    20 Jan 2026 19:43:32.618    20 Jan 2026 20:13:19.405          1786.788
                     272    20 Jan 2026 21:25:03.490    20 Jan 2026 21:56:02.131          1858.641
                     273    20 Jan 2026 23:08:37.751    20 Jan 2026 23:41:18.716          1960.964
                     274    21 Jan 2026 00:54:53.938    21 Jan 2026 01:27:31.599          1957.661
                     275    21 Jan 2026 02:40:26.017    21 Jan 2026 03:11:24.433          1858.416
                     276    21 Jan 2026 04:23:21.610    21 Jan 2026 04:53:13.244          1791.634
                     277    21 Jan 2026 06:04:43.162    21 Jan 2026 06:34:16.780          1773.619
                     278    21 Jan 2026 07:45:40.411    21 Jan 2026 08:15:41.510          1801.098
                     279    21 Jan 2026 09:27:22.315    21 Jan 2026 09:58:41.959          1879.644
                     280    21 Jan 2026 11:11:23.350    21 Jan 2026 11:44:18.224          1974.874
                     281    21 Jan 2026 12:57:56.219    21 Jan 2026 13:30:18.784          1942.564
                     282    21 Jan 2026 14:43:10.313    21 Jan 2026 15:13:48.617          1838.304
                     283    21 Jan 2026 16:25:47.767    21 Jan 2026 16:55:25.443          1777.676
                     284    21 Jan 2026 18:07:00.614    21 Jan 2026 18:36:26.732          1766.118
                     285    21 Jan 2026 19:47:57.829    21 Jan 2026 20:17:58.494          1800.665
                     286    21 Jan 2026 21:29:50.534    21 Jan 2026 22:01:17.979          1887.445
                     287    21 Jan 2026 23:14:13.972    21 Jan 2026 23:47:13.336          1979.364
                     288    22 Jan 2026 01:00:47.474    22 Jan 2026 01:33:01.462          1933.988
                     289    22 Jan 2026 02:45:37.162    22 Jan 2026 03:16:12.150          1834.988
                     290    22 Jan 2026 04:27:58.328    22 Jan 2026 04:57:40.000          1781.672
                     291    22 Jan 2026 06:09:05.286    22 Jan 2026 06:38:41.190          1775.905
                     292    22 Jan 2026 07:50:05.267    22 Jan 2026 08:20:22.266          1816.999
                     293    22 Jan 2026 09:32:13.030    22 Jan 2026 10:04:02.578          1909.549
                     294    22 Jan 2026 11:17:05.700    22 Jan 2026 11:50:11.783          1986.083
                     295    22 Jan 2026 13:03:45.176    22 Jan 2026 13:35:40.083          1914.907
                     296    22 Jan 2026 14:48:13.588    22 Jan 2026 15:18:30.196          1816.608
                     297    22 Jan 2026 16:30:19.282    22 Jan 2026 16:59:48.953          1769.671
                     298    22 Jan 2026 18:11:20.021    22 Jan 2026 18:40:50.278          1770.257
                     299    22 Jan 2026 19:52:22.630    22 Jan 2026 20:22:41.371          1818.741
                     300    22 Jan 2026 21:34:45.060    22 Jan 2026 22:06:43.624          1918.563
                     301    22 Jan 2026 23:19:59.450    22 Jan 2026 23:53:05.025          1985.575
                     302    23 Jan 2026 01:06:28.887    23 Jan 2026 01:38:14.878          1905.992
                     303    23 Jan 2026 02:50:33.043    23 Jan 2026 03:20:48.297          1815.254
                     304    23 Jan 2026 04:32:25.552    23 Jan 2026 05:02:00.668          1775.116
                     305    23 Jan 2026 06:13:22.670    23 Jan 2026 06:43:04.244          1781.573
                     306    23 Jan 2026 07:54:30.642    23 Jan 2026 08:25:07.768          1837.126
                     307    23 Jan 2026 09:37:12.442    23 Jan 2026 10:09:32.908          1940.466
                     308    23 Jan 2026 11:22:55.703    23 Jan 2026 11:55:59.156          1983.452
                     309    23 Jan 2026 13:09:19.450    23 Jan 2026 13:40:45.123          1885.673
                     310    23 Jan 2026 14:53:02.419    23 Jan 2026 15:23:01.040          1798.620
                     311    23 Jan 2026 16:34:42.102    23 Jan 2026 17:04:06.999          1764.897
                     312    23 Jan 2026 18:15:35.314    23 Jan 2026 18:45:13.112          1777.798
                     313    23 Jan 2026 19:56:48.724    23 Jan 2026 20:27:29.924          1841.200
                     314    23 Jan 2026 21:39:49.132    23 Jan 2026 22:12:18.570          1949.437
                     315    23 Jan 2026 23:25:49.878    23 Jan 2026 23:58:47.496          1977.618
                     316    24 Jan 2026 01:11:54.551    24 Jan 2026 01:43:12.290          1877.738
                     317    24 Jan 2026 02:55:15.396    24 Jan 2026 03:25:14.392          1798.996
                     318    24 Jan 2026 04:36:44.621    24 Jan 2026 05:06:16.409          1771.788
                     319    24 Jan 2026 06:17:36.415    24 Jan 2026 06:47:27.247          1790.832
                     320    24 Jan 2026 07:58:58.170    24 Jan 2026 08:29:59.889          1861.719
                     321    24 Jan 2026 09:42:22.770    24 Jan 2026 10:15:11.433          1968.663
                     322    24 Jan 2026 11:28:47.013    24 Jan 2026 12:01:34.592          1967.579
                     323    24 Jan 2026 13:14:37.210    24 Jan 2026 13:45:34.765          1857.555
                     324    24 Jan 2026 14:57:38.240    24 Jan 2026 15:27:22.638          1784.398
                     325    24 Jan 2026 16:38:57.284    24 Jan 2026 17:08:20.745          1763.461
                     326    24 Jan 2026 18:19:47.563    24 Jan 2026 18:49:36.658          1789.095
                     327    24 Jan 2026 20:01:18.035    24 Jan 2026 20:32:26.114          1868.078
                     328    24 Jan 2026 21:45:04.811    24 Jan 2026 22:18:00.123          1975.313
                     329    24 Jan 2026 23:31:37.893    25 Jan 2026 00:04:15.850          1957.957
                     330    25 Jan 2026 01:17:03.559    25 Jan 2026 01:47:55.030          1851.470
                     331    25 Jan 2026 02:59:45.478    25 Jan 2026 03:29:32.022          1786.544
                     332    25 Jan 2026 04:40:56.740    25 Jan 2026 05:10:28.521          1771.781
                     333    25 Jan 2026 06:21:47.893    25 Jan 2026 06:51:51.836          1803.943
                     334    25 Jan 2026 08:03:30.232    25 Jan 2026 08:35:00.550          1890.317
                     335    25 Jan 2026 09:47:45.100    25 Jan 2026 10:20:54.187          1989.087
                     336    25 Jan 2026 11:34:32.540    25 Jan 2026 12:06:54.463          1941.924
                     337    25 Jan 2026 13:19:37.992    25 Jan 2026 13:50:10.696          1832.704
                     338    25 Jan 2026 15:02:02.739    25 Jan 2026 15:31:36.567          1773.828
                     339    25 Jan 2026 16:43:06.308    25 Jan 2026 17:12:31.544          1765.237
                     340    25 Jan 2026 18:23:58.407    25 Jan 2026 18:54:02.713          1804.306
                     341    25 Jan 2026 20:05:53.055    25 Jan 2026 20:37:31.667          1898.612
                     342    25 Jan 2026 21:50:31.871    25 Jan 2026 22:23:43.203          1991.332
                     343    25 Jan 2026 23:37:16.903    26 Jan 2026 00:09:27.734          1930.831
                     344    26 Jan 2026 01:21:56.336    26 Jan 2026 01:52:24.929          1828.593
                     345    26 Jan 2026 03:04:05.201    26 Jan 2026 03:33:42.658          1777.457
                     346    26 Jan 2026 04:45:03.346    26 Jan 2026 05:14:38.315          1774.969
                     347    26 Jan 2026 06:25:58.671    26 Jan 2026 06:56:19.805          1821.134
                     348    26 Jan 2026 08:08:09.246    26 Jan 2026 08:40:11.080          1921.834
                     349    26 Jan 2026 09:53:18.411    26 Jan 2026 10:26:35.193          1996.782
                     350    26 Jan 2026 11:40:05.674    26 Jan 2026 12:11:57.526          1911.852
                     351    26 Jan 2026 13:24:23.241    26 Jan 2026 13:54:34.675          1811.434
                     352    26 Jan 2026 15:06:17.509    26 Jan 2026 15:35:44.157          1766.647
                     353    26 Jan 2026 16:47:10.318    26 Jan 2026 17:16:40.653          1770.335
                     354    26 Jan 2026 18:28:09.222    26 Jan 2026 18:58:33.058          1823.837
                     355    26 Jan 2026 20:10:36.166    26 Jan 2026 20:42:47.358          1931.192
                     356    26 Jan 2026 21:56:07.985    26 Jan 2026 22:29:21.193          1993.208
                     357    26 Jan 2026 23:42:41.707    27 Jan 2026 00:14:22.701          1900.994
                     358    27 Jan 2026 01:26:34.303    27 Jan 2026 01:56:43.673          1809.370
                     359    27 Jan 2026 03:08:15.787    27 Jan 2026 03:37:47.565          1771.778
                     360    27 Jan 2026 04:49:05.433    27 Jan 2026 05:18:47.075          1781.642
                     361    27 Jan 2026 06:30:10.237    27 Jan 2026 07:00:53.021          1842.783
                     362    27 Jan 2026 08:12:57.823    27 Jan 2026 08:45:31.414          1953.591
                     363    27 Jan 2026 09:58:58.012    27 Jan 2026 10:32:07.706          1989.693
                     364    27 Jan 2026 11:45:22.922    27 Jan 2026 12:16:44.048          1881.126
                     365    27 Jan 2026 13:28:54.095    27 Jan 2026 13:58:48.340          1794.246
                     366    27 Jan 2026 15:10:23.750    27 Jan 2026 15:39:46.613          1762.863
                     367    27 Jan 2026 16:51:10.429    27 Jan 2026 17:20:49.370          1778.941
                     368    27 Jan 2026 18:32:21.788    27 Jan 2026 19:03:09.614          1847.826
                     369    27 Jan 2026 20:15:29.813    27 Jan 2026 20:48:12.040          1962.227
                     370    27 Jan 2026 22:01:46.911    27 Jan 2026 22:34:47.690          1980.778
                     371    27 Jan 2026 23:47:49.675    28 Jan 2026 00:19:01.659          1871.984
                     372    28 Jan 2026 01:30:58.777    28 Jan 2026 02:00:52.829          1794.052
                     373    28 Jan 2026 03:12:18.551    28 Jan 2026 03:41:47.884          1769.333
                     374    28 Jan 2026 04:53:04.252    28 Jan 2026 05:22:56.118          1791.866
                     375    28 Jan 2026 06:34:24.575    28 Jan 2026 07:05:33.322          1868.747
                     376    28 Jan 2026 08:17:57.819    28 Jan 2026 08:50:59.193          1981.373
                     377    28 Jan 2026 10:04:37.033    28 Jan 2026 10:37:26.298          1969.265
                     378    28 Jan 2026 11:50:22.437    28 Jan 2026 12:21:15.366          1852.928
                     379    28 Jan 2026 13:33:12.379    28 Jan 2026 14:02:53.183          1780.804
                     380    28 Jan 2026 15:14:22.874    28 Jan 2026 15:43:45.081          1762.207
                     381    28 Jan 2026 16:55:07.916    28 Jan 2026 17:24:59.126          1791.210
                     382    28 Jan 2026 18:36:38.048    28 Jan 2026 19:07:54.178          1876.130
                     383    28 Jan 2026 20:20:35.158    28 Jan 2026 20:53:42.193          1987.035
                     384    28 Jan 2026 22:07:21.328    28 Jan 2026 22:39:58.489          1957.161
                     385    28 Jan 2026 23:52:40.423    29 Jan 2026 00:23:26.187          1845.765
                     386    29 Jan 2026 01:35:11.569    29 Jan 2026 02:04:53.827          1782.258
                     387    29 Jan 2026 03:16:14.728    29 Jan 2026 03:45:44.781          1770.053
                     388    29 Jan 2026 04:57:01.051    29 Jan 2026 05:27:06.986          1805.935
                     389    29 Jan 2026 06:38:43.757    29 Jan 2026 07:10:22.476          1898.720
                     390    29 Jan 2026 08:23:10.089    29 Jan 2026 08:56:29.699          1999.610
                     391    29 Jan 2026 10:10:07.481    29 Jan 2026 10:42:28.091          1940.610
                     392    29 Jan 2026 11:55:05.084    29 Jan 2026 12:25:33.215          1828.131
                     393    29 Jan 2026 13:37:19.626    29 Jan 2026 14:06:50.617          1770.990
                     394    29 Jan 2026 15:18:15.938    29 Jan 2026 15:47:40.757          1764.819
                     395    29 Jan 2026 16:59:04.042    29 Jan 2026 17:29:11.588          1807.546
                     396    29 Jan 2026 18:41:00.384    29 Jan 2026 19:12:48.349          1907.964
                     397    29 Jan 2026 20:25:52.005    29 Jan 2026 20:59:11.975          1999.970
                     398    29 Jan 2026 22:12:44.385    29 Jan 2026 22:44:51.851          1927.466
                     399    29 Jan 2026 23:57:14.900    30 Jan 2026 00:27:38.169          1823.269
                     400    30 Jan 2026 01:39:14.051    30 Jan 2026 02:08:48.112          1774.061
                     401    30 Jan 2026 03:20:05.435    30 Jan 2026 03:49:39.546          1774.112
                     402    30 Jan 2026 05:00:57.272    30 Jan 2026 05:31:21.477          1824.205
                     403    30 Jan 2026 06:43:10.438    30 Jan 2026 07:15:21.554          1931.116
                     404    30 Jan 2026 08:28:32.412    30 Jan 2026 09:01:56.276          2003.864
                     405    30 Jan 2026 10:15:23.954    30 Jan 2026 10:47:12.418          1908.464
                     406    30 Jan 2026 11:59:31.843    30 Jan 2026 12:29:39.438          1807.595
                     407    30 Jan 2026 13:41:17.300    30 Jan 2026 14:10:41.944          1764.644
                     408    30 Jan 2026 15:22:04.175    30 Jan 2026 15:51:34.895          1770.720
                     409    30 Jan 2026 17:03:00.444    30 Jan 2026 17:33:28.572          1828.127
                     410    30 Jan 2026 18:45:31.323    30 Jan 2026 19:17:52.388          1941.065
                     411    30 Jan 2026 20:31:16.318    30 Jan 2026 21:04:34.355          1998.038
                     412    30 Jan 2026 22:17:51.542    30 Jan 2026 22:49:27.959          1896.417
                     413    31 Jan 2026 00:01:34.502    31 Jan 2026 00:31:39.267          1804.765
                     414    31 Jan 2026 01:43:07.726    31 Jan 2026 02:12:36.791          1769.065
                     415    31 Jan 2026 03:23:51.868    31 Jan 2026 03:53:33.328          1781.459
                     416    31 Jan 2026 05:04:54.526    31 Jan 2026 05:35:41.303          1846.777
                     417    31 Jan 2026 06:47:46.805    31 Jan 2026 07:20:29.858          1963.052
                     418    31 Jan 2026 08:33:59.566    31 Jan 2026 09:07:12.166          1992.600
                     419    31 Jan 2026 10:20:22.762    31 Jan 2026 10:51:40.053          1877.291
                     420    31 Jan 2026 12:03:44.585    31 Jan 2026 12:33:35.542          1790.957
                     421    31 Jan 2026 13:45:06.733    31 Jan 2026 14:14:28.210          1761.476
                     422    31 Jan 2026 15:25:48.613    31 Jan 2026 15:55:28.661          1780.048
                     423    31 Jan 2026 17:06:58.632    31 Jan 2026 17:37:51.788          1853.157
                     424    31 Jan 2026 18:50:12.735    31 Jan 2026 19:23:04.591          1971.857
                     425    31 Jan 2026 20:36:41.649    31 Jan 2026 21:09:43.306          1981.657
                     426    31 Jan 2026 22:22:40.946    31 Jan 2026 22:53:47.996          1867.050
                     427     1 Feb 2026 00:05:40.920     1 Feb 2026 00:35:30.925          1790.005
                     428     1 Feb 2026 01:46:53.666     1 Feb 2026 02:16:20.933          1767.267
                     429     1 Feb 2026 03:27:35.005     1 Feb 2026 03:57:27.411          1792.406
                     430     1 Feb 2026 05:08:54.559     1 Feb 2026 05:40:08.281          1873.722
                     431     1 Feb 2026 06:52:34.823     1 Feb 2026 07:25:44.531          1989.708
                     432     1 Feb 2026 08:39:23.514     1 Feb 2026 09:12:12.522          1969.008
                     433     1 Feb 2026 10:25:03.635     1 Feb 2026 10:55:52.538          1848.903
                     434     1 Feb 2026 12:07:44.787     1 Feb 2026 12:37:23.013          1778.226
                     435     1 Feb 2026 13:48:49.011     1 Feb 2026 14:18:10.563          1761.552
                     436     1 Feb 2026 15:29:30.399     1 Feb 2026 15:59:23.534          1793.135
                     437     1 Feb 2026 17:11:00.729     1 Feb 2026 17:42:23.126          1882.397
                     438     1 Feb 2026 18:55:06.092     1 Feb 2026 19:28:20.834          1994.742
                     439     1 Feb 2026 20:42:00.087     1 Feb 2026 21:14:35.261          1955.174
                     440     1 Feb 2026 22:27:12.753     1 Feb 2026 22:57:53.829          1841.076
                     441     2 Feb 2026 00:09:35.655     2 Feb 2026 00:39:14.694          1779.039
                     442     2 Feb 2026 01:50:33.102     2 Feb 2026 02:20:01.794          1768.692
                     443     2 Feb 2026 03:31:16.247     2 Feb 2026 04:01:23.451          1807.204
                     444     2 Feb 2026 05:12:59.810     2 Feb 2026 05:44:44.122          1904.312
                     445     2 Feb 2026 06:57:34.579     2 Feb 2026 07:31:00.188          2005.610
                     446     2 Feb 2026 08:44:37.198     2 Feb 2026 09:16:55.147          1937.950
                     447     2 Feb 2026 10:29:27.102     2 Feb 2026 10:59:51.824          1824.722
                     448     2 Feb 2026 12:11:34.158     2 Feb 2026 12:41:03.282          1769.124
                     449     2 Feb 2026 13:52:25.465     2 Feb 2026 14:21:50.232          1764.767
                     450     2 Feb 2026 15:33:11.076     2 Feb 2026 16:03:21.219          1810.142
                     451     2 Feb 2026 17:15:09.190     2 Feb 2026 17:47:03.840          1914.651
                     452     2 Feb 2026 19:00:09.802     2 Feb 2026 19:33:34.717          2004.915
                     453     2 Feb 2026 20:47:05.318     2 Feb 2026 21:19:09.179          1923.860
                     454     2 Feb 2026 22:31:28.152     2 Feb 2026 23:01:47.300          1819.149
                     455     3 Feb 2026 00:13:20.419     3 Feb 2026 00:42:51.811          1771.392
                     456     3 Feb 2026 01:54:07.242     3 Feb 2026 02:23:40.498          1773.256
                     457     3 Feb 2026 03:34:57.004     3 Feb 2026 04:05:23.061          1826.056
                     458     3 Feb 2026 05:17:12.522     3 Feb 2026 05:49:29.419          1936.897
                     459     3 Feb 2026 07:02:43.347     3 Feb 2026 07:36:09.864          2006.517
                     460     3 Feb 2026 08:49:34.793     3 Feb 2026 09:21:19.887          1905.094
                     461     3 Feb 2026 10:33:34.960     3 Feb 2026 11:03:39.564          1804.604
                     462     3 Feb 2026 12:15:14.111     3 Feb 2026 12:44:37.423          1763.313
                     463     3 Feb 2026 13:55:57.057     3 Feb 2026 14:25:28.267          1771.210
                     464     3 Feb 2026 15:36:51.903     3 Feb 2026 16:07:23.285          1831.382
                     465     3 Feb 2026 17:19:26.079     3 Feb 2026 17:51:53.769          1947.689
                     466     3 Feb 2026 19:05:19.796     3 Feb 2026 19:38:39.182          1999.386
                     467     3 Feb 2026 20:51:53.318     3 Feb 2026 21:23:25.528          1892.210
                     468     3 Feb 2026 22:35:28.794     3 Feb 2026 23:05:29.934          1801.140
                     469     4 Feb 2026 00:16:56.283     4 Feb 2026 00:46:23.283          1767.000
                     470     4 Feb 2026 01:57:36.960     4 Feb 2026 02:27:18.127          1781.167
                     471     4 Feb 2026 03:38:38.704     4 Feb 2026 04:09:27.900          1849.196
                     472     4 Feb 2026 05:21:34.974     4 Feb 2026 05:54:23.105          1968.131
                     473     4 Feb 2026 07:07:54.809     4 Feb 2026 07:41:07.034          1992.226
                     474     4 Feb 2026 08:54:14.208     4 Feb 2026 09:25:27.776          1873.568
                     475     4 Feb 2026 10:37:28.644     4 Feb 2026 11:07:17.292          1788.648
                     476     4 Feb 2026 12:18:45.736     4 Feb 2026 12:48:06.511          1760.774
                     477     4 Feb 2026 13:59:24.774     4 Feb 2026 14:29:05.900          1781.126
                     478     4 Feb 2026 15:40:34.586     4 Feb 2026 16:11:31.536          1856.950
                     479     4 Feb 2026 17:23:53.601     4 Feb 2026 17:56:50.735          1977.135
                     480     4 Feb 2026 19:10:28.407     4 Feb 2026 19:43:28.655          1980.248
                     481     4 Feb 2026 20:56:22.971     4 Feb 2026 21:27:25.867          1862.896
                     482     4 Feb 2026 22:39:16.169     4 Feb 2026 23:09:03.307          1787.138
                     483     5 Feb 2026 00:20:24.478     5 Feb 2026 00:49:50.286          1765.807
                     484     5 Feb 2026 02:01:03.476     5 Feb 2026 02:30:56.082          1792.607
                     485     5 Feb 2026 03:42:23.385     5 Feb 2026 04:13:39.788          1876.402
                     486     5 Feb 2026 05:26:08.728     5 Feb 2026 05:59:21.753          1993.025
                     487     5 Feb 2026 07:13:01.256     5 Feb 2026 07:45:47.474          1966.218
                     488     5 Feb 2026 08:58:34.971     5 Feb 2026 09:29:20.669          1845.698
                     489     5 Feb 2026 10:41:09.957     5 Feb 2026 11:10:46.535          1776.578
                     490     5 Feb 2026 12:22:10.396     5 Feb 2026 12:51:31.735          1761.339
                     491     5 Feb 2026 14:02:50.038     5 Feb 2026 14:32:44.660          1794.622
                     492     5 Feb 2026 15:44:21.371     5 Feb 2026 16:15:47.652          1886.281
                     493     5 Feb 2026 17:28:32.163     5 Feb 2026 18:01:50.089          1997.926
                     494     5 Feb 2026 19:15:28.491     5 Feb 2026 19:48:00.296          1951.805
                     495     5 Feb 2026 21:00:34.681     5 Feb 2026 21:31:12.149          1837.468
                     496     5 Feb 2026 22:42:52.166     5 Feb 2026 23:12:28.846          1776.680
                     497     6 Feb 2026 00:23:46.315     6 Feb 2026 00:53:13.967          1767.652
                     498     6 Feb 2026 02:04:28.141     6 Feb 2026 02:34:35.892          1807.750
                     499     6 Feb 2026 03:46:13.198     6 Feb 2026 04:18:00.085          1906.887
                     500     6 Feb 2026 05:30:53.269     6 Feb 2026 06:04:19.611          2006.342
                     501     6 Feb 2026 07:17:55.358     6 Feb 2026 07:50:09.605          1934.247
                     502     6 Feb 2026 09:02:38.496     6 Feb 2026 09:33:00.438          1821.942
                     503     6 Feb 2026 10:44:40.594     6 Feb 2026 11:14:08.551          1767.957
                     504     6 Feb 2026 12:25:29.180     6 Feb 2026 12:54:54.162          1764.981
                     505     6 Feb 2026 14:06:14.026     6 Feb 2026 14:36:26.032          1812.006
                     506     6 Feb 2026 15:48:14.258     6 Feb 2026 16:20:12.525          1918.267
                     507     6 Feb 2026 17:33:20.201     6 Feb 2026 18:06:45.204          2005.003
                     508     6 Feb 2026 19:20:13.586     6 Feb 2026 19:52:13.479          1919.893
                     509     6 Feb 2026 21:04:30.132     6 Feb 2026 21:34:46.107          1815.975
                     510     6 Feb 2026 22:46:18.086     6 Feb 2026 23:15:47.680          1769.595
                     511     7 Feb 2026 00:27:02.708     7 Feb 2026 00:56:35.365          1772.657
                     512     7 Feb 2026 02:07:52.192     7 Feb 2026 02:38:19.068          1826.876
                     513     7 Feb 2026 03:50:10.312     7 Feb 2026 04:22:29.083          1938.772
                     514     7 Feb 2026 05:35:45.279     7 Feb 2026 06:09:09.696          2004.417
                     515     7 Feb 2026 07:22:32.506     7 Feb 2026 07:54:13.586          1901.080
                     516     7 Feb 2026 09:06:26.274     7 Feb 2026 09:36:28.751          1802.478
                     517     7 Feb 2026 10:48:01.715     7 Feb 2026 11:17:24.424          1762.709
                     518     7 Feb 2026 12:28:43.008     7 Feb 2026 12:58:14.868          1771.861
                     519     7 Feb 2026 14:09:38.122     7 Feb 2026 14:40:11.612          1833.489
                     520     7 Feb 2026 15:52:15.527     7 Feb 2026 16:24:45.658          1950.131
                     521     7 Feb 2026 17:38:12.342     7 Feb 2026 18:11:29.295          1996.952
                     522     7 Feb 2026 19:24:40.936     7 Feb 2026 19:56:09.074          1888.138
                     523     7 Feb 2026 21:08:10.719     7 Feb 2026 21:38:09.390          1798.671
                     524     7 Feb 2026 22:49:35.161     7 Feb 2026 23:19:00.916          1765.755
                     525     8 Feb 2026 00:30:14.693     8 Feb 2026 00:59:55.649          1780.956
                     526     8 Feb 2026 02:11:17.243     8 Feb 2026 02:42:07.288          1850.044
                     527     8 Feb 2026 03:54:16.935     8 Feb 2026 04:27:05.284          1968.349
                     528     8 Feb 2026 05:40:37.977     8 Feb 2026 06:13:46.012          1988.035
                     529     8 Feb 2026 07:26:50.833     8 Feb 2026 07:58:00.878          1870.045
                     530     8 Feb 2026 09:10:00.017     8 Feb 2026 09:39:47.234          1787.217
                     531     8 Feb 2026 10:51:14.694     8 Feb 2026 11:20:35.312          1760.618
                     532     8 Feb 2026 12:31:53.132     8 Feb 2026 13:01:35.180          1782.048
                     533     8 Feb 2026 14:13:04.251     8 Feb 2026 14:44:03.148          1858.897
                     534     8 Feb 2026 15:56:26.777     8 Feb 2026 16:29:24.461          1977.684
                     535     8 Feb 2026 17:43:01.637     8 Feb 2026 18:15:57.505          1975.867
                     536     8 Feb 2026 19:28:49.468     8 Feb 2026 19:59:48.926          1859.457
                     537     8 Feb 2026 21:11:38.360     8 Feb 2026 21:41:23.593          1785.233
                     538     8 Feb 2026 22:52:44.802     8 Feb 2026 23:22:09.742          1764.940
                     539     9 Feb 2026 00:33:23.639     9 Feb 2026 01:03:16.237          1792.598
                     540     9 Feb 2026 02:14:45.302     9 Feb 2026 02:46:02.195          1876.893
                     541     9 Feb 2026 03:58:33.972     9 Feb 2026 04:31:45.014          1991.042
                     542     9 Feb 2026 05:45:24.109     9 Feb 2026 06:18:05.080          1960.971
                     543     9 Feb 2026 07:30:50.611     9 Feb 2026 08:01:33.440          1842.828
                     544     9 Feb 2026 09:13:21.789     9 Feb 2026 09:42:57.377          1775.588
                     545     9 Feb 2026 10:54:20.845     9 Feb 2026 11:23:42.373          1761.528
                     546     9 Feb 2026 12:35:00.795     9 Feb 2026 13:04:56.545          1795.750
                     547     9 Feb 2026 14:16:34.308     9 Feb 2026 14:48:02.073          1887.765
                     548     9 Feb 2026 16:00:48.213     9 Feb 2026 16:34:04.123          1995.910
                     549     9 Feb 2026 17:47:40.680     9 Feb 2026 18:20:07.628          1946.948
                     550     9 Feb 2026 19:32:40.435     9 Feb 2026 20:03:14.967          1834.532
                     551     9 Feb 2026 21:14:54.802     9 Feb 2026 21:44:30.093          1775.291
                     552     9 Feb 2026 22:55:48.113     9 Feb 2026 23:25:15.270          1767.157
                     553    10 Feb 2026 00:36:30.722    10 Feb 2026 01:06:38.586          1807.864
                     554    10 Feb 2026 02:18:18.355    10 Feb 2026 02:50:04.936          1906.581
                     555    10 Feb 2026 04:03:00.780    10 Feb 2026 04:36:22.450          2001.671
                     556    10 Feb 2026 05:49:56.671    10 Feb 2026 06:22:05.761          1929.090
                     557    10 Feb 2026 07:34:33.416    10 Feb 2026 08:04:53.143          1819.727
                     558    10 Feb 2026 09:16:32.943    10 Feb 2026 09:46:00.435          1767.492
                     559    10 Feb 2026 10:57:21.168    10 Feb 2026 11:26:46.672          1765.504
                     560    10 Feb 2026 12:38:07.245    10 Feb 2026 13:08:20.430          1813.185
                     561    10 Feb 2026 14:20:10.370    10 Feb 2026 14:52:09.045          1918.674
                     562    10 Feb 2026 16:05:17.673    10 Feb 2026 16:38:38.142          2000.469
                     563    10 Feb 2026 17:52:04.283    10 Feb 2026 18:23:59.401          1915.119
                     564    10 Feb 2026 19:36:15.235    10 Feb 2026 20:06:29.000          1813.765
                     565    10 Feb 2026 21:18:01.341    10 Feb 2026 21:47:30.053          1768.712
                     566    10 Feb 2026 22:58:46.096    10 Feb 2026 23:28:18.579          1772.483
                     567    11 Feb 2026 00:39:37.265    11 Feb 2026 01:10:04.194          1826.929
                     568    11 Feb 2026 02:21:58.597    11 Feb 2026 02:54:15.499          1936.903
                     569    11 Feb 2026 04:07:33.196    11 Feb 2026 04:40:50.993          1997.796
                     570    11 Feb 2026 05:54:12.127    11 Feb 2026 06:25:48.598          1896.471
                     571    11 Feb 2026 07:38:00.735    11 Feb 2026 08:08:01.726          1800.991
                     572    11 Feb 2026 09:19:34.859    11 Feb 2026 09:48:57.541          1762.683
                     573    11 Feb 2026 11:00:16.741    11 Feb 2026 11:29:49.355          1772.614
                     574    11 Feb 2026 12:41:13.979    11 Feb 2026 13:11:48.426          1834.447
                     575    11 Feb 2026 14:23:54.561    11 Feb 2026 14:56:23.234          1948.673
                     576    11 Feb 2026 16:09:49.558    11 Feb 2026 16:43:00.330          1990.772
                     577    11 Feb 2026 17:56:09.899    11 Feb 2026 18:27:34.047          1884.148
                     578    11 Feb 2026 19:39:35.571    11 Feb 2026 20:09:32.719          1797.148
                     579    11 Feb 2026 21:20:59.380    11 Feb 2026 21:50:24.636          1765.256
                     580    11 Feb 2026 23:01:39.976    11 Feb 2026 23:31:20.899          1780.923
                     581    12 Feb 2026 00:42:45.043    12 Feb 2026 01:13:34.694          1849.651
                     582    12 Feb 2026 02:25:47.773    12 Feb 2026 02:58:32.149          1964.375
                     583    12 Feb 2026 04:12:05.005    12 Feb 2026 04:45:05.358          1980.352
                     584    12 Feb 2026 05:58:08.827    12 Feb 2026 06:29:15.254          1866.427
                     585    12 Feb 2026 07:41:14.558    12 Feb 2026 08:11:00.838          1786.280
                     586    12 Feb 2026 09:22:29.005    12 Feb 2026 09:51:49.899          1760.895
                     587    12 Feb 2026 11:03:08.881    12 Feb 2026 11:32:51.780          1782.899
                     588    12 Feb 2026 12:44:22.843    12 Feb 2026 13:15:22.145          1859.301
                     589    12 Feb 2026 14:27:48.014    12 Feb 2026 15:00:41.920          1973.906
                     590    12 Feb 2026 16:14:17.499    12 Feb 2026 16:47:06.559          1969.059
                     591    12 Feb 2026 17:59:57.122    12 Feb 2026 18:30:53.482          1856.360
                     592    12 Feb 2026 19:42:43.504    12 Feb 2026 20:12:27.708          1784.204
                     593    12 Feb 2026 21:23:50.274    12 Feb 2026 21:53:15.040          1764.765
                     594    12 Feb 2026 23:04:30.995    12 Feb 2026 23:34:23.631          1792.636
                     595    13 Feb 2026 00:45:55.852    13 Feb 2026 01:17:11.565          1875.714
                     596    13 Feb 2026 02:29:46.564    13 Feb 2026 03:02:51.145          1984.581
                     597    13 Feb 2026 04:16:29.097    13 Feb 2026 04:49:02.650          1953.553
                     598    13 Feb 2026 06:01:47.613    13 Feb 2026 06:32:27.684          1840.071
                     599    13 Feb 2026 07:44:16.767    13 Feb 2026 08:13:51.938          1775.171
                     600    13 Feb 2026 09:25:16.569    13 Feb 2026 09:54:38.642          1762.074
                     601    13 Feb 2026 11:05:58.763    13 Feb 2026 11:35:55.338          1796.575
