Simulation/Extra/Inmarsat2.txt

                                                                              29 Jul 2024 18:36:53
Satellite-NOVASAT-16U-Sensor-LargeAngle-To-Satellite-Inmarsat4F3_33278:  Access Summary Report


LargeAngle-To-Inmarsat4F3_33278
-------------------------------
                  Access        Start Time (UTCG)           Stop Time (UTCG)        Duration (sec)
                  ------    ------------------------    ------------------------    --------------
                       1     1 Jan 2026 10:22:01.454     1 Jan 2026 10:51:49.640          1788.185
                       2     1 Jan 2026 12:03:40.219     1 Jan 2026 12:33:18.303          1778.083
                       3     1 Jan 2026 13:45:05.557     1 Jan 2026 14:15:14.492          1808.935
                       4     1 Jan 2026 15:27:22.567     1 Jan 2026 15:58:43.409          1880.842
                       5     1 Jan 2026 17:11:44.314     1 Jan 2026 17:44:12.812          1948.498
                       6     1 Jan 2026 18:57:42.530     1 Jan 2026 19:29:36.762          1914.232
                       7     1 Jan 2026 20:42:23.449     1 Jan 2026 21:12:57.856          1834.408
                       8     1 Jan 2026 22:25:02.266     1 Jan 2026 22:54:49.621          1787.355
                       9     2 Jan 2026 00:06:35.294     2 Jan 2026 00:36:17.273          1781.978
                      10     2 Jan 2026 01:48:04.120     2 Jan 2026 02:18:22.016          1817.896
                      11     2 Jan 2026 03:30:36.646     2 Jan 2026 04:02:09.114          1892.468
                      12     2 Jan 2026 05:15:22.719     2 Jan 2026 05:47:49.088          1946.370
                      13     2 Jan 2026 07:01:21.634     2 Jan 2026 07:32:56.974          1895.340
                      14     2 Jan 2026 08:45:41.074     2 Jan 2026 09:15:59.789          1818.715
                      15     2 Jan 2026 10:28:03.405     2 Jan 2026 10:57:43.276          1779.871
                      16     2 Jan 2026 12:09:29.775     2 Jan 2026 12:39:12.198          1782.423
                      17     2 Jan 2026 13:51:01.615     2 Jan 2026 14:21:28.609          1826.994
                      18     2 Jan 2026 15:33:48.999     2 Jan 2026 16:05:37.339          1908.339
                      19     2 Jan 2026 17:18:54.807     2 Jan 2026 17:51:27.470          1952.663
                      20     2 Jan 2026 19:04:48.569     2 Jan 2026 19:36:18.408          1889.839
                      21     2 Jan 2026 20:48:48.542     2 Jan 2026 21:19:03.944          1815.402
                      22     2 Jan 2026 22:30:58.894     2 Jan 2026 23:00:39.996          1781.102
                      23     3 Jan 2026 00:12:22.407     3 Jan 2026 00:42:10.700          1788.293
                      24     3 Jan 2026 01:54:01.039     3 Jan 2026 02:24:38.947          1837.908
                      25     3 Jan 2026 03:37:08.230     3 Jan 2026 04:09:06.971          1918.741
                      26     3 Jan 2026 05:22:35.980     3 Jan 2026 05:54:59.316          1943.336
                      27     3 Jan 2026 07:08:20.152     3 Jan 2026 07:39:30.122          1869.970
                      28     3 Jan 2026 08:51:58.372     3 Jan 2026 09:22:00.035          1801.663
                      29     3 Jan 2026 10:33:55.209     3 Jan 2026 11:03:30.707          1775.498
                      30     3 Jan 2026 12:15:14.813     3 Jan 2026 12:45:05.543          1790.730
                      31     3 Jan 2026 13:56:59.585     3 Jan 2026 14:27:48.992          1849.407
                      32     3 Jan 2026 15:40:25.098     3 Jan 2026 16:12:39.181          1934.083
                      33     3 Jan 2026 17:26:07.991     3 Jan 2026 17:58:32.398          1944.407
                      34     3 Jan 2026 19:11:38.634     3 Jan 2026 19:42:43.266          1864.632
                      35     3 Jan 2026 20:54:58.666     3 Jan 2026 21:24:58.750          1800.083
                      36     3 Jan 2026 22:36:46.327     3 Jan 2026 23:06:24.872          1778.545
                      37     4 Jan 2026 00:18:05.703     4 Jan 2026 00:48:04.385          1798.682
                      38     4 Jan 2026 02:00:00.928     4 Jan 2026 02:31:03.045          1862.117
                      39     4 Jan 2026 03:43:50.380     4 Jan 2026 04:16:11.240          1940.860
                      40     4 Jan 2026 05:29:48.270     4 Jan 2026 06:01:57.200          1928.930
                      41     4 Jan 2026 07:15:01.758     4 Jan 2026 07:45:46.943          1845.185
                      42     4 Jan 2026 08:58:01.458     4 Jan 2026 09:27:49.869          1788.411
                      43     4 Jan 2026 10:39:38.461     4 Jan 2026 11:09:13.418          1774.957
                      44     4 Jan 2026 12:20:56.742     4 Jan 2026 12:51:00.129          1803.387
                      45     4 Jan 2026 14:03:01.739     4 Jan 2026 14:34:17.550          1875.812
                      46     4 Jan 2026 15:47:11.995     4 Jan 2026 16:19:45.393          1953.398
                      47     4 Jan 2026 17:33:16.772     4 Jan 2026 18:05:22.781          1926.010
                      48     4 Jan 2026 19:18:11.497     4 Jan 2026 19:48:52.520          1841.023
                      49     4 Jan 2026 21:00:55.354     4 Jan 2026 21:30:44.144          1788.790
                      50     4 Jan 2026 22:42:26.055     4 Jan 2026 23:12:05.934          1779.879
                      51     5 Jan 2026 00:23:46.970     5 Jan 2026 00:54:00.409          1813.439
                      52     5 Jan 2026 02:06:06.577     5 Jan 2026 02:37:36.061          1889.484
                      53     5 Jan 2026 03:50:42.999     5 Jan 2026 04:23:17.218          1954.219
                      54     5 Jan 2026 05:36:52.880     5 Jan 2026 06:08:39.163          1906.283
                      55     5 Jan 2026 07:21:25.957     5 Jan 2026 07:51:49.099          1823.142
                      56     5 Jan 2026 09:03:52.171     5 Jan 2026 09:33:31.210          1779.039
                      57     5 Jan 2026 10:45:15.041     5 Jan 2026 11:14:53.166          1778.126
                      58     5 Jan 2026 12:26:37.666     5 Jan 2026 12:56:58.158          1820.493
                      59     5 Jan 2026 14:09:10.788     5 Jan 2026 14:40:55.596          1904.808
                      60     5 Jan 2026 15:54:08.383     5 Jan 2026 16:26:50.311          1961.928
                      61     5 Jan 2026 17:40:14.712     5 Jan 2026 18:11:56.339          1901.627
                      62     5 Jan 2026 19:24:27.568     5 Jan 2026 19:54:48.040          1820.472
                      63     5 Jan 2026 21:06:40.681     5 Jan 2026 21:36:21.887          1781.206
                      64     5 Jan 2026 22:47:59.803     5 Jan 2026 23:17:44.850          1785.047
                      65     6 Jan 2026 00:29:28.156     6 Jan 2026 01:00:00.955          1832.799
                      66     6 Jan 2026 02:12:20.620     6 Jan 2026 02:44:18.667          1918.047
                      67     6 Jan 2026 03:57:43.534     6 Jan 2026 04:30:18.627          1955.093
                      68     6 Jan 2026 05:43:43.926     6 Jan 2026 06:15:03.954          1880.028
                      69     6 Jan 2026 07:27:33.957     6 Jan 2026 07:57:38.466          1804.509
                      70     6 Jan 2026 09:09:32.230     6 Jan 2026 09:39:05.743          1773.513
                      71     6 Jan 2026 10:50:46.331     6 Jan 2026 11:20:31.669          1785.338
                      72     6 Jan 2026 12:32:19.571     6 Jan 2026 13:03:01.896          1842.325
                      73     6 Jan 2026 14:15:29.494     6 Jan 2026 14:47:42.924          1933.430
                      74     6 Jan 2026 16:01:09.868     6 Jan 2026 16:33:47.298          1957.430
                      75     6 Jan 2026 17:46:57.555     6 Jan 2026 18:18:12.673          1875.119
                      76     6 Jan 2026 19:30:27.977     6 Jan 2026 20:00:31.764          1803.786
                      77     6 Jan 2026 21:12:16.170     6 Jan 2026 21:41:53.675          1777.505
                      78     6 Jan 2026 22:53:29.125     6 Jan 2026 23:23:23.429          1794.304
                      79     7 Jan 2026 00:35:11.608     7 Jan 2026 01:06:08.278          1856.669
                      80     7 Jan 2026 02:18:45.331     7 Jan 2026 02:51:09.394          1944.064
                      81     7 Jan 2026 04:04:46.010     7 Jan 2026 04:37:09.078          1943.068
                      82     7 Jan 2026 05:50:18.057     7 Jan 2026 06:21:11.942          1853.885
                      83     7 Jan 2026 07:33:27.113     7 Jan 2026 08:03:16.915          1789.802
                      84     7 Jan 2026 09:15:03.414     7 Jan 2026 09:44:35.055          1771.641
                      85     7 Jan 2026 10:56:14.027     7 Jan 2026 11:26:10.722          1796.694
                      86     7 Jan 2026 12:38:04.769     7 Jan 2026 13:09:13.435          1868.666
                      87     7 Jan 2026 14:21:59.341     7 Jan 2026 14:54:36.769          1957.428
                      88     7 Jan 2026 16:08:09.750     7 Jan 2026 16:40:30.718          1940.967
                      89     7 Jan 2026 17:53:22.919     7 Jan 2026 18:24:12.743          1849.825
                      90     7 Jan 2026 19:36:14.561     7 Jan 2026 20:06:05.404          1790.844
                      91     7 Jan 2026 21:17:43.453     7 Jan 2026 21:47:20.963          1777.510
                      92     7 Jan 2026 22:58:55.599     7 Jan 2026 23:29:03.504          1807.905
                      93     8 Jan 2026 00:40:59.701     8 Jan 2026 01:12:24.360          1884.659
                      94     8 Jan 2026 02:25:21.850     8 Jan 2026 02:58:04.280          1962.430
                      95     8 Jan 2026 04:11:42.811     8 Jan 2026 04:43:44.060          1921.249
                      96     8 Jan 2026 05:56:34.666     8 Jan 2026 06:27:04.493          1829.827
                      97     8 Jan 2026 07:39:07.180     8 Jan 2026 08:08:46.210          1779.030
                      98     8 Jan 2026 09:20:27.091     8 Jan 2026 09:50:00.708          1773.617
                      99     8 Jan 2026 11:01:39.755     8 Jan 2026 11:31:52.404          1812.649
                     100     8 Jan 2026 12:43:56.064     8 Jan 2026 13:15:34.692          1898.628
                     101     8 Jan 2026 14:28:40.357     8 Jan 2026 15:01:31.917          1971.560
                     102     8 Jan 2026 16:15:00.816     8 Jan 2026 16:46:57.295          1916.479
                     103     8 Jan 2026 17:59:30.844     8 Jan 2026 18:29:58.389          1827.546
                     104     8 Jan 2026 19:41:48.975     8 Jan 2026 20:11:30.885          1781.910
                     105     8 Jan 2026 21:23:04.148     8 Jan 2026 21:52:45.520          1781.372
                     106     8 Jan 2026 23:04:21.258     8 Jan 2026 23:34:47.391          1826.133
                     107     9 Jan 2026 00:46:55.507     9 Jan 2026 01:18:50.618          1915.111
                     108     9 Jan 2026 02:32:08.525     9 Jan 2026 03:04:57.134          1968.609
                     109     9 Jan 2026 04:18:27.522     9 Jan 2026 04:50:01.649          1894.128
                     110     9 Jan 2026 06:02:34.237     9 Jan 2026 06:32:43.621          1809.385
                     111     9 Jan 2026 07:44:36.197     9 Jan 2026 08:14:08.182          1771.985
                     112     9 Jan 2026 09:25:45.128     9 Jan 2026 09:55:24.481          1779.352
                     113     9 Jan 2026 11:07:05.686     9 Jan 2026 11:37:39.045          1833.359
                     114     9 Jan 2026 12:49:56.231     9 Jan 2026 13:22:06.304          1930.073
                     115     9 Jan 2026 14:35:29.582     9 Jan 2026 15:08:21.537          1971.954
                     116     9 Jan 2026 16:21:37.375     9 Jan 2026 16:53:06.215          1888.840
                     117     9 Jan 2026 18:05:22.705     9 Jan 2026 18:35:31.509          1808.804
                     118     9 Jan 2026 19:47:13.131     9 Jan 2026 20:16:49.790          1776.659
                     119     9 Jan 2026 21:28:19.799     9 Jan 2026 21:58:08.993          1789.194
                     120     9 Jan 2026 23:09:48.100     9 Jan 2026 23:40:37.364          1849.264
                     121    10 Jan 2026 00:53:01.797    10 Jan 2026 01:25:26.707          1944.910
                     122    10 Jan 2026 02:39:00.402    10 Jan 2026 03:11:40.982          1960.580
                     123    10 Jan 2026 04:24:55.880    10 Jan 2026 04:56:01.782          1865.902
                     124    10 Jan 2026 06:08:18.316    10 Jan 2026 06:38:11.168          1792.852
                     125    10 Jan 2026 07:49:55.577    10 Jan 2026 08:19:24.355          1768.779
                     126    10 Jan 2026 09:30:58.775    10 Jan 2026 10:00:48.066          1789.290
                     127    10 Jan 2026 11:12:33.946    10 Jan 2026 11:43:32.983          1859.038
                     128    10 Jan 2026 12:56:07.954    10 Jan 2026 13:28:46.668          1958.714
                     129    10 Jan 2026 14:42:20.361    10 Jan 2026 15:14:58.983          1958.622
                     130    10 Jan 2026 16:27:56.604    10 Jan 2026 16:58:58.140          1861.536
                     131    10 Jan 2026 18:10:59.807    10 Jan 2026 18:40:54.008          1794.201
                     132    10 Jan 2026 19:52:28.485    10 Jan 2026 20:22:03.699          1775.214
                     133    10 Jan 2026 21:33:31.966    10 Jan 2026 22:03:33.240          1801.275
                     134    10 Jan 2026 23:15:18.696    10 Jan 2026 23:46:35.714          1877.018
                     135    11 Jan 2026 00:59:20.413    11 Jan 2026 01:32:09.554          1969.141
                     136    11 Jan 2026 02:45:50.006    11 Jan 2026 03:18:10.187          1940.181
                     137    11 Jan 2026 04:31:05.951    11 Jan 2026 05:01:45.710          1839.758
                     138    11 Jan 2026 06:13:48.680    11 Jan 2026 06:43:28.962          1780.282
                     139    11 Jan 2026 07:55:07.117    11 Jan 2026 08:24:36.275          1769.159
                     140    11 Jan 2026 09:36:09.810    11 Jan 2026 10:06:13.411          1803.601
                     141    11 Jan 2026 11:18:07.129    11 Jan 2026 11:49:36.361          1889.232
                     142    11 Jan 2026 13:02:32.076    11 Jan 2026 13:35:31.330          1979.254
                     143    11 Jan 2026 14:49:04.887    11 Jan 2026 15:21:19.915          1935.028
                     144    11 Jan 2026 16:33:57.842    11 Jan 2026 17:04:34.689          1836.847
                     145    11 Jan 2026 18:16:24.204    11 Jan 2026 18:46:07.605          1783.400
                     146    11 Jan 2026 19:57:36.643    11 Jan 2026 20:27:14.118          1777.475
                     147    11 Jan 2026 21:38:42.349    11 Jan 2026 22:09:00.324          1817.975
                     148    11 Jan 2026 23:20:55.785    11 Jan 2026 23:52:44.411          1908.626
                     149    12 Jan 2026 01:05:51.567    12 Jan 2026 01:38:53.462          1981.896
                     150    12 Jan 2026 02:52:29.387    12 Jan 2026 03:24:21.810          1912.424
                     151    12 Jan 2026 04:36:58.422    12 Jan 2026 05:07:15.305          1816.883
                     152    12 Jan 2026 06:19:07.126    12 Jan 2026 06:48:38.764          1771.638
                     153    12 Jan 2026 08:00:12.166    12 Jan 2026 08:29:45.573          1773.407
                     154    12 Jan 2026 09:41:20.028    12 Jan 2026 10:11:42.810          1822.782
                     155    12 Jan 2026 11:23:48.404    12 Jan 2026 11:55:50.809          1922.405
                     156    12 Jan 2026 13:09:07.071    12 Jan 2026 13:42:13.495          1986.424
                     157    12 Jan 2026 14:55:36.604    12 Jan 2026 15:27:22.671          1906.068
                     158    12 Jan 2026 16:39:41.979    12 Jan 2026 17:09:58.002          1816.022
                     159    12 Jan 2026 18:21:37.593    12 Jan 2026 18:51:14.131          1776.538
                     160    12 Jan 2026 20:02:39.181    12 Jan 2026 20:32:22.828          1783.648
                     161    12 Jan 2026 21:43:53.082    12 Jan 2026 22:14:32.694          1839.613
                     162    12 Jan 2026 23:26:42.656    12 Jan 2026 23:59:04.170          1941.514
                     163    13 Jan 2026 01:12:31.510    13 Jan 2026 01:45:31.066          1979.555
                     164    13 Jan 2026 02:58:53.063    13 Jan 2026 03:30:15.356          1882.293
                     165    13 Jan 2026 04:42:34.519    13 Jan 2026 05:12:32.655          1798.136
                     166    13 Jan 2026 06:24:15.591    13 Jan 2026 06:53:42.271          1766.681
                     167    13 Jan 2026 08:05:12.478    13 Jan 2026 08:34:53.995          1781.517
                     168    13 Jan 2026 09:46:31.664    13 Jan 2026 10:17:18.673          1847.009
                     169    13 Jan 2026 11:29:40.543    13 Jan 2026 12:02:15.901          1955.359
                     170    13 Jan 2026 13:15:47.798    13 Jan 2026 13:48:45.734          1977.936
                     171    13 Jan 2026 15:01:51.037    13 Jan 2026 15:33:07.609          1876.572
                     172    13 Jan 2026 16:45:10.840    13 Jan 2026 17:15:09.917          1799.077
                     173    13 Jan 2026 18:26:41.723    13 Jan 2026 18:56:15.025          1773.301
                     174    13 Jan 2026 20:07:37.554    13 Jan 2026 20:37:31.455          1793.901
                     175    13 Jan 2026 21:49:06.291    13 Jan 2026 22:20:12.680          1866.388
                     176    13 Jan 2026 23:32:41.977    14 Jan 2026 00:05:33.282          1971.306
                     177    14 Jan 2026 01:19:13.011    14 Jan 2026 01:51:55.533          1962.522
                     178    14 Jan 2026 03:04:58.457    14 Jan 2026 03:35:51.729          1853.272
                     179    14 Jan 2026 04:47:56.041    14 Jan 2026 05:17:39.532          1783.491
                     180    14 Jan 2026 06:29:15.406    14 Jan 2026 06:58:40.880          1765.474
                     181    14 Jan 2026 08:10:09.253    14 Jan 2026 08:40:03.264          1794.011
                     182    14 Jan 2026 09:51:46.996    14 Jan 2026 10:23:03.405          1876.409
                     183    14 Jan 2026 11:35:45.961    14 Jan 2026 12:08:48.437          1982.476
                     184    14 Jan 2026 13:22:25.827    14 Jan 2026 13:55:02.230          1956.403
                     185    14 Jan 2026 15:07:46.954    14 Jan 2026 15:38:36.197          1849.243
                     186    14 Jan 2026 16:50:25.958    14 Jan 2026 17:20:12.331          1786.374
                     187    14 Jan 2026 18:31:37.992    14 Jan 2026 19:01:11.855          1773.864
                     188    14 Jan 2026 20:12:33.363    14 Jan 2026 20:42:42.021          1808.657
                     189    14 Jan 2026 21:54:24.839    14 Jan 2026 22:26:02.670          1897.831
                     190    14 Jan 2026 23:38:55.051    15 Jan 2026 00:12:06.930          1991.878
                     191    15 Jan 2026 01:25:47.657    15 Jan 2026 01:58:02.604          1934.947
                     192    15 Jan 2026 03:10:45.083    15 Jan 2026 03:41:12.839          1827.755
                     193    15 Jan 2026 04:53:04.946    15 Jan 2026 05:22:37.813          1772.867
                     194    15 Jan 2026 06:34:08.352    15 Jan 2026 07:03:36.227          1767.876
                     195    15 Jan 2026 08:15:04.513    15 Jan 2026 08:45:15.595          1811.082
                     196    15 Jan 2026 09:57:09.083    15 Jan 2026 10:28:59.159          1910.076
                     197    15 Jan 2026 11:42:04.491    15 Jan 2026 12:15:22.201          1997.710
                     198    15 Jan 2026 13:28:53.211    15 Jan 2026 14:01:00.309          1927.098
                     199    15 Jan 2026 15:13:24.943    15 Jan 2026 15:43:50.547          1825.603
                     200    15 Jan 2026 16:55:29.541    15 Jan 2026 17:25:06.978          1777.438
                     201    15 Jan 2026 18:36:28.089    15 Jan 2026 19:06:06.202          1778.113
                     202    15 Jan 2026 20:17:28.515    15 Jan 2026 20:47:56.784          1828.269
                     203    15 Jan 2026 21:59:51.782    15 Jan 2026 22:32:04.325          1932.543
                     204    15 Jan 2026 23:45:20.518    16 Jan 2026 00:18:37.863          1997.345
                     205    16 Jan 2026 01:32:08.012    16 Jan 2026 02:03:50.963          1902.951
                     206    16 Jan 2026 03:16:14.586    16 Jan 2026 03:46:20.796          1806.210
                     207    16 Jan 2026 04:58:03.114    16 Jan 2026 05:27:29.167          1766.052
                     208    16 Jan 2026 06:38:55.799    16 Jan 2026 07:08:29.933          1774.133
                     209    16 Jan 2026 08:20:00.017    16 Jan 2026 08:50:33.350          1833.333
                     210    16 Jan 2026 10:02:41.174    16 Jan 2026 10:35:06.894          1945.720
                     211    16 Jan 2026 11:48:32.668    16 Jan 2026 12:21:49.263          1996.595
                     212    16 Jan 2026 13:35:04.450    16 Jan 2026 14:06:39.693          1895.242
                     213    16 Jan 2026 15:18:46.557    16 Jan 2026 15:48:52.798          1806.242
                     214    16 Jan 2026 17:00:23.127    16 Jan 2026 17:29:55.528          1772.401
                     215    16 Jan 2026 18:41:13.406    16 Jan 2026 19:10:59.792          1786.386
                     216    16 Jan 2026 20:22:25.139    16 Jan 2026 20:53:18.259          1853.120
                     217    16 Jan 2026 22:05:30.591    16 Jan 2026 22:38:17.370          1966.779
                     218    16 Jan 2026 23:51:52.242    17 Jan 2026 00:24:58.203          1985.962
                     219    17 Jan 2026 01:38:10.129    17 Jan 2026 02:09:21.248          1871.119
                     220    17 Jan 2026 03:21:28.492    17 Jan 2026 03:51:17.654          1789.163
                     221    17 Jan 2026 05:02:52.223    17 Jan 2026 05:32:15.171          1762.947
                     222    17 Jan 2026 06:43:39.307    17 Jan 2026 07:13:23.751          1784.444
                     223    17 Jan 2026 08:24:58.235    17 Jan 2026 08:55:59.071          1860.836
                     224    17 Jan 2026 10:08:26.086    17 Jan 2026 10:41:24.874          1978.788
                     225    17 Jan 2026 11:55:03.064    17 Jan 2026 12:28:02.408          1979.344
                     226    17 Jan 2026 13:40:56.635    17 Jan 2026 14:12:01.707          1865.072
                     227    17 Jan 2026 15:23:53.769    17 Jan 2026 15:53:44.813          1791.044
                     228    17 Jan 2026 17:05:08.462    17 Jan 2026 17:34:39.392          1770.930
                     229    17 Jan 2026 18:45:55.519    17 Jan 2026 19:15:54.360          1798.841
                     230    17 Jan 2026 20:27:25.667    17 Jan 2026 20:58:48.875          1883.208
                     231    17 Jan 2026 22:11:23.558    17 Jan 2026 22:44:38.513          1994.955
                     232    17 Jan 2026 23:58:21.357    18 Jan 2026 00:31:02.099          1960.742
                     233    18 Jan 2026 01:43:52.928    18 Jan 2026 02:14:35.138          1842.210
                     234    18 Jan 2026 03:26:28.977    18 Jan 2026 03:56:05.181          1776.204
                     235    18 Jan 2026 05:07:33.761    18 Jan 2026 05:36:57.223          1763.462
                     236    18 Jan 2026 06:48:20.304    18 Jan 2026 07:18:19.543          1799.240
                     237    18 Jan 2026 08:30:01.585    18 Jan 2026 09:01:35.192          1893.607
                     238    18 Jan 2026 10:14:25.613    18 Jan 2026 10:47:48.199          2002.586
                     239    18 Jan 2026 12:01:26.306    18 Jan 2026 12:33:57.319          1951.013
                     240    18 Jan 2026 13:46:30.096    18 Jan 2026 14:17:08.373          1838.277
                     241    18 Jan 2026 15:28:48.442    18 Jan 2026 15:58:28.445          1780.003
                     242    18 Jan 2026 17:09:46.909    18 Jan 2026 17:39:20.148          1773.238
                     243    18 Jan 2026 18:50:36.049    18 Jan 2026 19:20:52.085          1816.035
                     244    18 Jan 2026 20:32:33.193    18 Jan 2026 21:04:31.011          1917.818
                     245    18 Jan 2026 22:17:31.232    18 Jan 2026 22:51:01.233          2010.001
                     246    19 Jan 2026 00:04:39.204    19 Jan 2026 00:36:46.943          1927.739
                     247    19 Jan 2026 01:49:17.242    19 Jan 2026 02:19:34.937          1817.695
                     248    19 Jan 2026 03:31:17.929    19 Jan 2026 04:00:45.258          1767.329
                     249    19 Jan 2026 05:12:09.341    19 Jan 2026 05:41:37.032          1767.691
                     250    19 Jan 2026 06:53:00.819    19 Jan 2026 07:23:19.717          1818.899
                     251    19 Jan 2026 08:35:13.660    19 Jan 2026 09:07:23.665          1930.005
                     252    19 Jan 2026 10:20:38.110    19 Jan 2026 10:54:09.094          2010.984
                     253    19 Jan 2026 12:07:35.252    19 Jan 2026 12:39:32.914          1917.662
                     254    19 Jan 2026 13:51:46.091    19 Jan 2026 14:22:02.073          1815.982
                     255    19 Jan 2026 15:33:32.670    19 Jan 2026 16:03:05.438          1772.768
                     256    19 Jan 2026 17:14:20.214    19 Jan 2026 17:43:59.462          1779.248
                     257    19 Jan 2026 18:55:17.122    19 Jan 2026 19:25:55.379          1838.257
                     258    19 Jan 2026 20:37:51.083    19 Jan 2026 21:10:25.681          1954.598
                     259    19 Jan 2026 22:23:50.011    19 Jan 2026 22:57:17.187          2007.176
                     260    20 Jan 2026 00:10:39.572    20 Jan 2026 00:42:12.814          1893.242
                     261    20 Jan 2026 01:54:25.193    20 Jan 2026 02:24:22.814          1797.621
                     262    20 Jan 2026 03:35:57.318    20 Jan 2026 04:05:19.438          1762.120
                     263    20 Jan 2026 05:16:40.439    20 Jan 2026 05:46:16.188          1775.749
                     264    20 Jan 2026 06:57:42.816    20 Jan 2026 07:28:26.665          1843.850
                     265    20 Jan 2026 08:40:37.446    20 Jan 2026 09:13:24.415          1966.968
                     266    20 Jan 2026 10:26:58.078    20 Jan 2026 11:00:19.210          2001.132
                     267    20 Jan 2026 12:13:25.582    20 Jan 2026 12:44:49.996          1884.415
                     268    20 Jan 2026 13:56:46.737    20 Jan 2026 14:26:44.788          1798.051
                     269    20 Jan 2026 15:38:07.987    20 Jan 2026 16:07:37.241          1769.254
                     270    20 Jan 2026 17:18:49.613    20 Jan 2026 17:48:38.950          1789.337
                     271    20 Jan 2026 19:00:00.779    20 Jan 2026 19:31:06.734          1865.955
                     272    20 Jan 2026 20:43:22.631    20 Jan 2026 21:16:31.376          1988.746
                     273    20 Jan 2026 22:30:11.539    20 Jan 2026 23:03:18.809          1987.270
                     274    21 Jan 2026 00:16:20.336    21 Jan 2026 00:47:21.150          1860.814
                     275    21 Jan 2026 01:59:18.530    21 Jan 2026 02:29:00.707          1782.176
                     276    21 Jan 2026 03:40:28.510    21 Jan 2026 04:09:49.177          1760.667
                     277    21 Jan 2026 05:21:08.398    21 Jan 2026 05:50:56.449          1788.050
                     278    21 Jan 2026 07:02:28.739    21 Jan 2026 07:33:43.000          1874.261
                     279    21 Jan 2026 08:46:15.892    21 Jan 2026 09:19:34.253          1998.362
                     280    21 Jan 2026 10:33:16.034    21 Jan 2026 11:06:12.288          1976.255
                     281    21 Jan 2026 12:18:56.183    21 Jan 2026 12:49:50.597          1854.414
                     282    21 Jan 2026 14:01:33.927    21 Jan 2026 14:31:18.464          1784.537
                     283    21 Jan 2026 15:42:35.970    21 Jan 2026 16:12:05.369          1769.399
                     284    21 Jan 2026 17:23:16.785    21 Jan 2026 17:53:20.570          1803.786
                     285    21 Jan 2026 19:04:49.939    21 Jan 2026 19:36:28.696          1898.756
                     286    21 Jan 2026 20:49:09.659    21 Jan 2026 21:22:43.099          2013.440
                     287    21 Jan 2026 22:36:26.299    21 Jan 2026 23:09:01.741          1955.442
                     288    22 Jan 2026 00:21:41.475    22 Jan 2026 00:52:14.221          1832.746
                     289    22 Jan 2026 02:03:59.645    22 Jan 2026 02:33:30.469          1770.825
                     290    22 Jan 2026 03:44:53.301    22 Jan 2026 04:14:16.009          1762.707
                     291    22 Jan 2026 05:25:35.041    22 Jan 2026 05:55:39.917          1804.876
                     292    22 Jan 2026 07:07:21.535    22 Jan 2026 07:39:11.082          1909.547
                     293    22 Jan 2026 08:52:09.467    22 Jan 2026 09:25:46.541          2017.074
                     294    22 Jan 2026 10:39:22.773    22 Jan 2026 11:11:45.740          1942.967
                     295    22 Jan 2026 12:24:08.358    22 Jan 2026 12:54:37.038          1828.680
                     296    22 Jan 2026 14:06:09.881    22 Jan 2026 14:35:44.836          1774.956
                     297    22 Jan 2026 15:46:58.170    22 Jan 2026 16:16:31.340          1773.170
                     298    22 Jan 2026 17:27:43.484    22 Jan 2026 17:58:06.528          1823.044
                     299    22 Jan 2026 19:09:47.653    22 Jan 2026 19:42:03.252          1935.598
                     300    22 Jan 2026 20:55:11.380    22 Jan 2026 21:28:52.862          2021.482
                     301    22 Jan 2026 22:42:25.861    22 Jan 2026 23:14:24.912          1919.052
                     302    23 Jan 2026 00:26:44.966    23 Jan 2026 00:56:54.365          1809.399
                     303    23 Jan 2026 02:08:30.330    23 Jan 2026 02:37:53.772          1763.443
                     304    23 Jan 2026 03:49:12.977    23 Jan 2026 04:18:41.495          1768.518
                     305    23 Jan 2026 05:30:02.124    23 Jan 2026 06:00:28.921          1826.797
                     306    23 Jan 2026 07:12:24.606    23 Jan 2026 07:44:52.233          1947.626
                     307    23 Jan 2026 08:58:14.907    23 Jan 2026 09:31:52.470          2017.563
                     308    23 Jan 2026 10:45:12.365    23 Jan 2026 11:16:59.661          1907.296
                     309    23 Jan 2026 12:29:03.853    23 Jan 2026 12:59:11.668          1807.815
                     310    23 Jan 2026 14:10:36.261    23 Jan 2026 14:40:05.537          1769.276
                     311    23 Jan 2026 15:51:15.991    23 Jan 2026 16:20:56.787          1780.796
                     312    23 Jan 2026 17:32:11.762    23 Jan 2026 18:02:59.268          1847.506
                     313    23 Jan 2026 19:14:57.571    23 Jan 2026 19:47:50.480          1972.909
                     314    23 Jan 2026 21:01:21.529    23 Jan 2026 21:34:51.875          2010.345
                     315    23 Jan 2026 22:48:05.928    23 Jan 2026 23:19:29.374          1883.446
                     316    24 Jan 2026 00:31:32.749    24 Jan 2026 01:01:23.727          1790.978
                     317    24 Jan 2026 02:12:52.355    24 Jan 2026 02:42:12.118          1759.763
                     318    24 Jan 2026 03:53:29.056    24 Jan 2026 04:23:07.268          1778.213
                     319    24 Jan 2026 05:34:31.962    24 Jan 2026 06:05:25.929          1853.967
                     320    24 Jan 2026 07:17:41.022    24 Jan 2026 07:50:45.050          1984.027
                     321    24 Jan 2026 09:04:24.325    24 Jan 2026 09:37:43.977          1999.652
                     322    24 Jan 2026 10:50:41.748    24 Jan 2026 11:21:55.727          1873.979
                     323    24 Jan 2026 12:33:44.950    24 Jan 2026 13:03:36.370          1791.419
                     324    24 Jan 2026 14:14:54.766    24 Jan 2026 14:44:21.893          1767.127
                     325    24 Jan 2026 15:55:30.886    24 Jan 2026 16:25:23.310          1792.424
                     326    24 Jan 2026 17:36:43.893    24 Jan 2026 18:08:01.180          1877.288
                     327    24 Jan 2026 19:20:22.266    24 Jan 2026 19:53:47.336          2005.070
                     328    24 Jan 2026 21:07:30.506    24 Jan 2026 21:40:33.643          1983.136
                     329    24 Jan 2026 22:53:25.583    24 Jan 2026 23:24:17.130          1851.547
                     330    25 Jan 2026 00:36:07.121    25 Jan 2026 01:05:44.079          1776.958
                     331    25 Jan 2026 02:17:07.152    25 Jan 2026 02:46:26.811          1759.659
                     332    25 Jan 2026 03:57:42.858    25 Jan 2026 04:27:35.031          1792.173
                     333    25 Jan 2026 05:39:06.834    25 Jan 2026 06:10:33.335          1886.501
                     334    25 Jan 2026 07:23:12.930    25 Jan 2026 07:56:44.756          2011.826
                     335    25 Jan 2026 09:10:27.265    25 Jan 2026 09:43:16.312          1969.048
                     336    25 Jan 2026 10:55:51.537    25 Jan 2026 11:26:36.223          1844.686
                     337    25 Jan 2026 12:38:13.611    25 Jan 2026 13:07:52.972          1779.360
                     338    25 Jan 2026 14:19:06.703    25 Jan 2026 14:48:35.350          1768.647
                     339    25 Jan 2026 15:59:44.313    25 Jan 2026 16:29:52.884          1808.571
                     340    25 Jan 2026 17:41:22.722    25 Jan 2026 18:13:14.652          1911.930
                     341    25 Jan 2026 19:26:03.001    25 Jan 2026 19:59:47.194          2024.193
                     342    25 Jan 2026 21:13:28.296    25 Jan 2026 21:45:55.340          1947.044
                     343    25 Jan 2026 22:58:25.981    25 Jan 2026 23:28:50.661          1824.680
                     344    26 Jan 2026 00:40:30.044    26 Jan 2026 01:09:57.236          1767.192
                     345    26 Jan 2026 02:21:16.235    26 Jan 2026 02:50:39.394          1763.159
                     346    26 Jan 2026 04:01:56.198    26 Jan 2026 04:32:06.963          1810.765
                     347    26 Jan 2026 05:43:50.063    26 Jan 2026 06:15:53.202          1923.139
                     348    26 Jan 2026 07:28:59.313    26 Jan 2026 08:02:43.231          2023.918
                     349    26 Jan 2026 09:16:15.725    26 Jan 2026 09:48:28.335          1932.610
                     350    26 Jan 2026 11:00:43.176    26 Jan 2026 11:31:03.683          1820.507
                     351    26 Jan 2026 12:42:31.898    26 Jan 2026 13:12:03.160          1771.262
                     352    26 Jan 2026 14:23:13.669    26 Jan 2026 14:52:47.432          1773.764
                     353    26 Jan 2026 16:03:58.252    26 Jan 2026 16:34:27.721          1829.469
                     354    26 Jan 2026 17:46:11.541    26 Jan 2026 18:18:40.881          1949.340
                     355    26 Jan 2026 19:31:56.446    26 Jan 2026 20:05:41.117          2024.671
                     356    26 Jan 2026 21:19:07.966    26 Jan 2026 21:50:57.173          1909.207
                     357    26 Jan 2026 23:03:09.390    26 Jan 2026 23:33:12.256          1802.867
                     358    27 Jan 2026 00:44:43.539    27 Jan 2026 01:14:04.680          1761.141
                     359    27 Jan 2026 02:25:21.023    27 Jan 2026 02:54:51.311          1770.289
                     360    27 Jan 2026 04:06:10.902    27 Jan 2026 04:36:45.232          1834.330
                     361    27 Jan 2026 05:48:44.546    27 Jan 2026 06:21:25.665          1961.119
                     362    27 Jan 2026 07:34:54.976    27 Jan 2026 08:08:31.404          2016.428
                     363    27 Jan 2026 09:21:44.534    27 Jan 2026 09:53:21.060          1896.527
                     364    27 Jan 2026 11:05:19.095    27 Jan 2026 11:35:20.115          1801.019
                     365    27 Jan 2026 12:46:41.401    27 Jan 2026 13:16:08.226          1766.826
                     366    27 Jan 2026 14:27:16.855    27 Jan 2026 14:56:59.521          1782.666
                     367    27 Jan 2026 16:08:14.483    27 Jan 2026 16:39:09.992          1855.509
                     368    27 Jan 2026 17:51:13.327    27 Jan 2026 18:24:18.705          1985.378
                     369    27 Jan 2026 19:37:54.667    27 Jan 2026 20:11:20.781          2006.114
                     370    27 Jan 2026 21:24:26.967    27 Jan 2026 21:55:40.748          1873.781
                     371    27 Jan 2026 23:07:37.876    27 Jan 2026 23:37:23.805          1785.930
                     372    28 Jan 2026 00:48:48.866    28 Jan 2026 01:18:07.674          1758.808
                     373    28 Jan 2026 02:29:22.598    28 Jan 2026 02:59:04.019          1781.421
                     374    28 Jan 2026 04:10:28.962    28 Jan 2026 04:41:32.104          1863.142
                     375    28 Jan 2026 05:53:53.178    28 Jan 2026 06:27:08.006          1994.828
                     376    28 Jan 2026 07:40:49.986    28 Jan 2026 08:14:02.279          1992.293
                     377    28 Jan 2026 09:26:52.762    28 Jan 2026 09:57:56.625          1863.863
                     378    28 Jan 2026 11:09:41.163    28 Jan 2026 11:39:27.419          1786.257
                     379    28 Jan 2026 12:50:43.499    28 Jan 2026 13:20:09.534          1766.035
                     380    28 Jan 2026 14:31:17.628    28 Jan 2026 15:01:13.296          1795.668
                     381    28 Jan 2026 16:12:35.464    28 Jan 2026 16:44:02.010          1886.546
                     382    28 Jan 2026 17:56:30.313    28 Jan 2026 18:30:03.558          2013.245
                     383    28 Jan 2026 19:43:47.210    28 Jan 2026 20:16:41.163          1973.952
                     384    28 Jan 2026 21:29:25.231    28 Jan 2026 22:00:08.501          1843.270
                     385    28 Jan 2026 23:11:53.674    28 Jan 2026 23:41:27.135          1773.461
                     386    29 Jan 2026 00:52:47.657    29 Jan 2026 01:22:07.611          1759.955
                     387    29 Jan 2026 02:33:22.653    29 Jan 2026 03:03:19.378          1796.725
                     388    29 Jan 2026 04:14:53.182    29 Jan 2026 04:46:29.769          1896.587
                     389    29 Jan 2026 05:59:16.642    29 Jan 2026 06:32:53.932          2017.290
                     390    29 Jan 2026 07:46:34.821    29 Jan 2026 08:19:12.801          1957.981
                     391    29 Jan 2026 09:31:41.407    29 Jan 2026 10:02:17.562          1836.155
                     392    29 Jan 2026 11:13:51.745    29 Jan 2026 11:43:27.285          1775.540
                     393    29 Jan 2026 12:54:39.760    29 Jan 2026 13:24:08.437          1768.677
                     394    29 Jan 2026 14:35:17.641    29 Jan 2026 15:05:30.668          1813.027
                     395    29 Jan 2026 16:17:03.984    29 Jan 2026 16:49:05.580          1921.596
                     396    29 Jan 2026 18:02:01.883    29 Jan 2026 18:35:47.715          2025.832
                     397    29 Jan 2026 19:49:24.856    29 Jan 2026 20:21:40.979          1936.123
                     398    29 Jan 2026 21:34:04.992    29 Jan 2026 22:04:22.856          1817.865
                     399    29 Jan 2026 23:15:58.848    29 Jan 2026 23:45:23.806          1764.958
                     400    30 Jan 2026 00:56:41.236    30 Jan 2026 01:26:05.839          1764.603
                     401    30 Jan 2026 02:37:22.726    30 Jan 2026 03:07:39.328          1816.602
                     402    30 Jan 2026 04:19:26.240    30 Jan 2026 04:51:39.454          1933.214
                     403    30 Jan 2026 06:04:52.726    30 Jan 2026 06:38:34.741          2022.015
                     404    30 Jan 2026 07:52:02.092    30 Jan 2026 08:24:02.914          1920.822
                     405    30 Jan 2026 09:36:12.744    30 Jan 2026 10:06:26.175          1813.431
                     406    30 Jan 2026 11:17:52.451    30 Jan 2026 11:47:21.173          1768.722
                     407    30 Jan 2026 12:58:31.346    30 Jan 2026 13:28:06.295          1774.949
                     408    30 Jan 2026 14:39:18.525    30 Jan 2026 15:09:53.659          1835.133
                     409    30 Jan 2026 16:21:43.048    30 Jan 2026 16:54:21.019          1957.971
                     410    30 Jan 2026 18:07:43.019    30 Jan 2026 18:41:22.202          2019.182
                     411    30 Jan 2026 19:54:42.821    30 Jan 2026 20:26:21.158          1898.337
                     412    30 Jan 2026 21:38:28.223    30 Jan 2026 22:08:25.967          1797.744
                     413    30 Jan 2026 23:19:54.895    30 Jan 2026 23:49:15.166          1760.271
                     414    31 Jan 2026 01:00:30.763    31 Jan 2026 01:30:03.727          1772.964
                     415    31 Jan 2026 02:41:24.630    31 Jan 2026 03:12:05.959          1841.329
                     416    31 Jan 2026 04:24:11.187    31 Jan 2026 04:57:00.246          1969.059
                     417    31 Jan 2026 06:10:33.744    31 Jan 2026 06:44:01.935          2008.191
                     418    31 Jan 2026 07:57:08.806    31 Jan 2026 08:28:34.300          1885.493
                     419    31 Jan 2026 09:40:28.762    31 Jan 2026 10:10:24.461          1795.698
                     420    31 Jan 2026 11:21:44.826    31 Jan 2026 11:51:10.367          1765.540
                     421    31 Jan 2026 13:02:19.587    31 Jan 2026 13:32:04.533          1784.947
                     422    31 Jan 2026 14:43:22.370    31 Jan 2026 15:14:24.353          1861.983
                     423    31 Jan 2026 16:26:35.213    31 Jan 2026 16:59:45.862          1990.649
                     424    31 Jan 2026 18:13:24.601    31 Jan 2026 18:46:39.895          1995.294
                     425    31 Jan 2026 19:59:39.295    31 Jan 2026 20:30:43.835          1864.540
                     426    31 Jan 2026 21:42:37.311    31 Jan 2026 22:12:19.654          1782.343
                     427    31 Jan 2026 23:23:43.440    31 Jan 2026 23:53:02.473          1759.033
                     428     1 Feb 2026 01:04:17.645     1 Feb 2026 01:34:02.795          1785.150
                     429     1 Feb 2026 02:45:30.562     1 Feb 2026 03:16:41.303          1870.741
                     430     1 Feb 2026 04:29:09.621     1 Feb 2026 05:02:28.106          1998.486
                     431     1 Feb 2026 06:16:10.292     1 Feb 2026 06:49:10.161          1979.869
                     432     1 Feb 2026 08:01:54.804     1 Feb 2026 08:32:49.317          1854.513
                     433     1 Feb 2026 09:44:31.867     1 Feb 2026 10:14:14.115          1782.248
                     434     1 Feb 2026 11:25:30.326     1 Feb 2026 11:54:56.098          1765.772
                     435     1 Feb 2026 13:06:05.830     1 Feb 2026 13:36:04.759          1798.929
                     436     1 Feb 2026 14:47:31.428     1 Feb 2026 15:19:04.676          1893.248
                     437     1 Feb 2026 16:31:41.550     1 Feb 2026 17:05:14.509          2012.959
                     438     1 Feb 2026 18:18:56.381     1 Feb 2026 18:51:37.405          1961.024
                     439     1 Feb 2026 20:04:15.802     1 Feb 2026 20:34:51.431          1835.630
                     440     1 Feb 2026 21:46:34.360     1 Feb 2026 22:16:05.568          1771.208
                     441     1 Feb 2026 23:27:25.736     1 Feb 2026 23:56:46.993          1761.257
                     442     2 Feb 2026 01:08:03.275     2 Feb 2026 01:38:04.766          1801.491
                     443     2 Feb 2026 02:49:42.973     2 Feb 2026 03:21:27.087          1904.114
                     444     2 Feb 2026 04:34:21.610     2 Feb 2026 05:07:55.966          2014.356
                     445     2 Feb 2026 06:21:33.115     2 Feb 2026 06:53:57.656          1944.541
                     446     2 Feb 2026 08:06:21.939     2 Feb 2026 08:36:50.453          1828.514
                     447     2 Feb 2026 09:48:23.841     2 Feb 2026 10:17:56.778          1772.937
                     448     2 Feb 2026 11:29:10.208     2 Feb 2026 11:58:39.718          1769.510
                     449     2 Feb 2026 13:09:51.629     2 Feb 2026 13:40:08.847          1817.219
                     450     2 Feb 2026 14:51:48.511     2 Feb 2026 15:23:55.861          1927.350
                     451     2 Feb 2026 16:36:59.990     2 Feb 2026 17:10:38.786          2018.796
                     452     2 Feb 2026 18:24:11.219     2 Feb 2026 18:56:14.411          1923.192
                     453     2 Feb 2026 20:08:34.163     2 Feb 2026 20:38:46.351          1812.188
                     454     2 Feb 2026 21:50:21.169     2 Feb 2026 22:19:45.210          1764.041
                     455     2 Feb 2026 23:31:03.125     3 Feb 2026 00:00:30.085          1766.959
                     456     3 Feb 2026 01:11:49.363     3 Feb 2026 01:42:11.570          1822.207
                     457     3 Feb 2026 02:54:04.754     3 Feb 2026 03:26:23.690          1938.936
                     458     3 Feb 2026 04:39:42.458     3 Feb 2026 05:13:15.207          2012.749
                     459     3 Feb 2026 06:26:37.032     3 Feb 2026 06:58:25.193          1908.160
                     460     3 Feb 2026 08:10:32.200     3 Feb 2026 08:40:39.901          1807.700
                     461     3 Feb 2026 09:52:06.438     3 Feb 2026 10:21:33.765          1767.327
                     462     3 Feb 2026 11:32:45.819     3 Feb 2026 12:02:22.517          1776.698
                     463     3 Feb 2026 13:13:38.810     3 Feb 2026 13:44:18.652          1839.842
                     464     3 Feb 2026 14:56:16.146     3 Feb 2026 15:28:57.091          1960.945
                     465     3 Feb 2026 16:42:23.985     3 Feb 2026 17:15:50.449          2006.464
                     466     3 Feb 2026 18:29:05.153     3 Feb 2026 19:00:32.412          1887.258
                     467     3 Feb 2026 20:12:36.793     3 Feb 2026 20:42:30.519          1793.726
                     468     3 Feb 2026 21:53:59.375     3 Feb 2026 22:23:19.778          1760.403
                     469     3 Feb 2026 23:34:36.798     4 Feb 2026 00:04:13.015          1776.217
                     470     4 Feb 2026 01:15:37.649     4 Feb 2026 01:46:24.987          1847.338
                     471     4 Feb 2026 02:58:37.795     4 Feb 2026 03:31:29.011          1971.216
                     472     4 Feb 2026 04:45:04.543     4 Feb 2026 05:18:18.610          1994.067
                     473     4 Feb 2026 06:31:19.925     4 Feb 2026 07:02:34.684          1874.759
                     474     4 Feb 2026 08:14:27.994     4 Feb 2026 08:44:19.399          1791.405
                     475     4 Feb 2026 09:55:41.047     4 Feb 2026 10:25:06.212          1765.165
                     476     4 Feb 2026 11:36:18.272     4 Feb 2026 12:06:05.816          1787.544
                     477     4 Feb 2026 13:17:29.146     4 Feb 2026 13:48:35.939          1866.793
                     478     4 Feb 2026 15:00:56.054     4 Feb 2026 15:34:04.924          1988.871
                     479     4 Feb 2026 16:47:44.158     4 Feb 2026 17:20:43.914          1979.756
                     480     4 Feb 2026 18:33:38.194     4 Feb 2026 19:04:33.595          1855.400
                     481     4 Feb 2026 20:16:25.823     4 Feb 2026 20:46:05.633          1779.810
                     482     4 Feb 2026 21:57:30.217     4 Feb 2026 22:26:50.450          1760.233
                     483     4 Feb 2026 23:38:07.980     5 Feb 2026 00:07:57.248          1789.267
                     484     5 Feb 2026 01:19:30.191     5 Feb 2026 01:50:46.765          1876.574
                     485     5 Feb 2026 03:03:23.357     5 Feb 2026 03:36:38.172          1994.815
                     486     5 Feb 2026 04:50:18.029     5 Feb 2026 05:23:02.294          1964.265
                     487     5 Feb 2026 06:35:42.786     5 Feb 2026 07:06:28.565          1845.779
                     488     5 Feb 2026 08:18:11.206     5 Feb 2026 08:47:50.688          1779.481
                     489     5 Feb 2026 09:59:08.973     5 Feb 2026 10:28:35.426          1766.453
                     490     5 Feb 2026 11:39:48.986     5 Feb 2026 12:09:51.278          1802.292
                     491     5 Feb 2026 13:21:25.084     5 Feb 2026 13:53:02.284          1897.201
                     492     5 Feb 2026 15:05:48.283     5 Feb 2026 15:39:13.078          2004.795
                     493     5 Feb 2026 16:52:51.774     5 Feb 2026 17:25:17.036          1945.262
                     494     5 Feb 2026 18:37:51.698     5 Feb 2026 19:08:20.470          1828.772
                     495     5 Feb 2026 20:20:03.267     5 Feb 2026 20:49:33.354          1770.088
                     496     5 Feb 2026 22:00:55.151     5 Feb 2026 22:30:18.569          1763.418
                     497     5 Feb 2026 23:41:38.282     6 Feb 2026 00:11:44.552          1806.269
                     498     6 Feb 2026 01:23:29.608     6 Feb 2026 01:55:18.040          1908.431
                     499     6 Feb 2026 03:08:19.460     6 Feb 2026 03:41:43.820          2004.360
                     500     6 Feb 2026 04:55:16.126     6 Feb 2026 05:27:25.589          1929.463
                     501     6 Feb 2026 06:39:47.294     6 Feb 2026 07:10:09.273          1821.979
                     502     6 Feb 2026 08:21:43.841     6 Feb 2026 08:51:15.268          1771.427
                     503     6 Feb 2026 10:02:31.656     6 Feb 2026 10:32:02.688          1771.032
                     504     6 Feb 2026 11:43:19.660     6 Feb 2026 12:13:40.631          1820.970
                     505     6 Feb 2026 13:25:29.036     6 Feb 2026 13:57:38.017          1928.981
                     506     6 Feb 2026 15:10:48.998     6 Feb 2026 15:44:13.701          2004.703
                     507     6 Feb 2026 16:57:40.967     6 Feb 2026 17:29:30.288          1909.320
                     508     6 Feb 2026 18:41:47.927     6 Feb 2026 19:11:55.220          1807.293
                     509     6 Feb 2026 20:23:30.999     6 Feb 2026 20:52:55.004          1764.005
                     510     6 Feb 2026 22:04:15.419     6 Feb 2026 22:33:45.357          1769.938
                     511     6 Feb 2026 23:45:09.270     7 Feb 2026 00:15:36.561          1827.291
                     512     7 Feb 2026 01:27:37.866     7 Feb 2026 01:59:58.161          1940.294
                     513     7 Feb 2026 03:13:20.927     7 Feb 2026 03:46:38.216          1997.289
                     514     7 Feb 2026 04:59:54.365     7 Feb 2026 05:31:29.682          1895.317
                     515     7 Feb 2026 06:43:35.894     7 Feb 2026 07:13:38.720          1802.826
                     516     7 Feb 2026 08:25:07.429     7 Feb 2026 08:54:34.302          1766.873
                     517     7 Feb 2026 10:05:50.169     7 Feb 2026 10:35:29.175          1779.006
                     518     7 Feb 2026 11:46:51.780     7 Feb 2026 12:17:35.452          1843.672
                     519     7 Feb 2026 13:29:42.816     7 Feb 2026 14:02:21.454          1958.638
                     520     7 Feb 2026 15:15:51.335     7 Feb 2026 15:48:59.860          1988.526
                     521     7 Feb 2026 17:02:09.535     7 Feb 2026 17:33:25.335          1875.800
                     522     7 Feb 2026 18:45:29.127     7 Feb 2026 19:15:19.635          1790.509
                     523     7 Feb 2026 20:26:50.301     7 Feb 2026 20:56:11.726          1761.425
                     524     7 Feb 2026 22:07:32.095     7 Feb 2026 22:37:12.056          1779.961
                     525     7 Feb 2026 23:48:42.604     8 Feb 2026 00:19:34.867          1852.263
                     526     8 Feb 2026 01:31:56.608     8 Feb 2026 02:04:44.277          1967.669
                     527     8 Feb 2026 03:18:19.404     8 Feb 2026 03:51:15.666          1976.262
                     528     8 Feb 2026 05:04:12.422     8 Feb 2026 05:35:16.638          1864.216
                     529     8 Feb 2026 06:47:10.496     8 Feb 2026 07:16:58.708          1788.212
                     530     8 Feb 2026 08:28:23.277     8 Feb 2026 08:57:49.042          1765.765
                     531     8 Feb 2026 10:09:05.781     8 Feb 2026 10:38:56.321          1790.540
                     532     8 Feb 2026 11:50:27.360     8 Feb 2026 12:21:37.335          1869.975
                     533     8 Feb 2026 13:34:07.658     8 Feb 2026 14:07:08.477          1980.819
                     534     8 Feb 2026 15:20:46.377     8 Feb 2026 15:53:27.449          1961.072
                     535     8 Feb 2026 17:06:17.951     8 Feb 2026 17:37:04.529          1846.577
                     536     8 Feb 2026 18:48:57.355     8 Feb 2026 19:18:35.487          1778.132
                     537     8 Feb 2026 20:30:02.621     8 Feb 2026 20:59:24.837          1762.216
                     538     8 Feb 2026 22:10:46.639     8 Feb 2026 22:40:40.254          1793.616
                     539     8 Feb 2026 23:52:20.554     9 Feb 2026 00:23:40.921          1880.367
                     540     9 Feb 2026 01:36:25.764     9 Feb 2026 02:09:31.067          1985.303
                     541     9 Feb 2026 03:23:07.169     9 Feb 2026 03:55:33.653          1946.484
                     542     9 Feb 2026 05:08:11.174     9 Feb 2026 05:38:48.960          1837.786
                     543     9 Feb 2026 06:50:33.242     9 Feb 2026 07:20:10.942          1777.701
                     544     9 Feb 2026 08:31:32.906     9 Feb 2026 09:01:00.812          1767.906
                     545     9 Feb 2026 10:12:20.081     9 Feb 2026 10:42:25.773          1805.692
                     546     9 Feb 2026 11:54:08.709     9 Feb 2026 12:25:47.300          1898.591
                     547     9 Feb 2026 13:38:41.939     9 Feb 2026 14:11:52.819          1990.880
                     548     9 Feb 2026 15:25:27.355     9 Feb 2026 15:57:35.427          1928.072
                     549     9 Feb 2026 17:10:07.882     9 Feb 2026 17:40:30.278          1822.396
                     550     9 Feb 2026 18:52:14.729     9 Feb 2026 19:21:44.343          1769.614
                     551     9 Feb 2026 20:33:09.476     9 Feb 2026 21:02:35.640          1766.164
                     552     9 Feb 2026 22:14:00.674     9 Feb 2026 22:44:11.577          1810.904
                     553     9 Feb 2026 23:56:05.184    10 Feb 2026 00:27:55.101          1909.917
                     554    10 Feb 2026 01:41:02.429    10 Feb 2026 02:14:11.652          1989.224
                     555    10 Feb 2026 03:27:38.363    10 Feb 2026 03:59:32.251          1913.888
                     556    10 Feb 2026 05:11:52.781    10 Feb 2026 05:42:08.842          1816.061
                     557    10 Feb 2026 06:53:46.014    10 Feb 2026 07:23:16.781          1770.766
                     558    10 Feb 2026 08:34:37.571    10 Feb 2026 09:04:10.819          1773.248
                     559    10 Feb 2026 10:15:34.540    10 Feb 2026 10:45:59.051          1824.510
                     560    10 Feb 2026 11:57:57.661    10 Feb 2026 12:30:04.954          1927.294
                     561    10 Feb 2026 13:43:21.505    10 Feb 2026 14:16:27.535          1986.030
                     562    10 Feb 2026 15:29:49.649    10 Feb 2026 16:01:24.624          1894.974
                     563    10 Feb 2026 17:13:41.721    10 Feb 2026 17:43:44.555          1802.833
                     564    10 Feb 2026 18:55:22.799    10 Feb 2026 19:24:47.426          1764.628
                     565    10 Feb 2026 20:36:11.889    10 Feb 2026 21:05:45.296          1773.408
                     566    10 Feb 2026 22:17:15.592    10 Feb 2026 22:47:47.482          1831.890
                     567    10 Feb 2026 23:59:58.097    11 Feb 2026 00:32:16.105          1938.008
                     568    11 Feb 2026 01:45:40.966    11 Feb 2026 02:18:39.556          1978.590
                     569    11 Feb 2026 03:31:50.414    11 Feb 2026 04:03:12.804          1882.390
                     570    11 Feb 2026 05:15:19.333    11 Feb 2026 05:45:18.131          1798.798
                     571    11 Feb 2026 06:56:50.148    11 Feb 2026 07:26:17.437          1767.289
                     572    11 Feb 2026 08:37:38.416    11 Feb 2026 09:07:20.302          1781.887
                     573    11 Feb 2026 10:18:50.786    11 Feb 2026 10:49:37.621          1846.835
                     574    11 Feb 2026 12:01:55.754    11 Feb 2026 12:34:28.006          1952.251
                     575    11 Feb 2026 13:47:59.061    11 Feb 2026 14:20:47.124          1968.063
                     576    11 Feb 2026 15:33:52.474    11 Feb 2026 16:04:56.831          1864.357
                     577    11 Feb 2026 17:17:01.351    11 Feb 2026 17:46:49.161          1787.810
                     578    11 Feb 2026 18:58:22.948    11 Feb 2026 19:27:45.982          1763.034
                     579    11 Feb 2026 20:39:11.126    11 Feb 2026 21:08:55.164          1784.038
                     580    11 Feb 2026 22:20:33.245    11 Feb 2026 22:51:29.419          1856.174
                     581    12 Feb 2026 00:04:00.396    12 Feb 2026 00:36:40.562          1960.166
                     582    12 Feb 2026 01:50:13.709    12 Feb 2026 02:22:50.521          1956.812
                     583    12 Feb 2026 03:35:43.303    12 Feb 2026 04:06:37.483          1854.180
                     584    12 Feb 2026 05:18:32.822    12 Feb 2026 05:48:18.617          1785.795
                     585    12 Feb 2026 06:59:47.094    12 Feb 2026 07:29:14.214          1767.120
                     586    12 Feb 2026 08:40:36.834    12 Feb 2026 09:10:30.753          1793.919
                     587    12 Feb 2026 10:22:10.869    12 Feb 2026 10:53:22.795          1871.926
                     588    12 Feb 2026 12:06:03.039    12 Feb 2026 12:38:52.081          1969.042
                     589    12 Feb 2026 13:52:27.525    12 Feb 2026 14:24:48.748          1941.224
                     590    12 Feb 2026 15:37:36.371    12 Feb 2026 16:08:14.362          1837.991
                     591    12 Feb 2026 17:20:08.935    12 Feb 2026 17:49:45.817          1776.882
                     592    12 Feb 2026 19:01:16.736    12 Feb 2026 19:30:41.344          1764.608
                     593    12 Feb 2026 20:42:08.782    12 Feb 2026 21:12:06.823          1798.041
                     594    12 Feb 2026 22:23:55.749    12 Feb 2026 22:55:18.372          1882.622
                     595    13 Feb 2026 00:08:10.829    13 Feb 2026 00:41:03.229          1972.400
                     596    13 Feb 2026 01:54:34.615    13 Feb 2026 02:26:43.051          1928.436
                     597    13 Feb 2026 03:39:18.267    13 Feb 2026 04:09:48.617          1830.350
                     598    13 Feb 2026 05:21:35.321    13 Feb 2026 05:51:11.900          1776.580
                     599    13 Feb 2026 07:02:38.384    13 Feb 2026 07:32:08.405          1770.021
                     600    13 Feb 2026 08:43:34.411    13 Feb 2026 09:13:43.707          1809.296
                     601    13 Feb 2026 10:25:36.700    13 Feb 2026 10:57:15.023          1898.323
