Simulation/Extra/3 days simulation - 0 Beta/GS.txt

                                                                               4 Aug 2024 19:13:00
Satellite-NOVASAT-16U-Sensor-LargeAngle-To-Place-Haifa:  Access Summary Report


LargeAngle-To-Haifa
-------------------
                  Access        Start Time (UTCG)           Stop Time (UTCG)        Duration (sec)
                  ------    ------------------------    ------------------------    --------------
                       1    12 Feb 2026 21:54:36.121    12 Feb 2026 21:58:53.446           257.325
                       2    12 Feb 2026 23:32:50.406    12 Feb 2026 23:39:19.930           389.524
                       3    13 Feb 2026 01:14:08.215    13 Feb 2026 01:20:29.485           381.270
                       4    13 Feb 2026 02:56:33.741    13 Feb 2026 03:02:20.919           347.178
                       5    13 Feb 2026 04:38:17.218    13 Feb 2026 04:44:20.436           363.218
                       6    13 Feb 2026 06:19:10.137    13 Feb 2026 06:25:46.542           396.405
                       7    13 Feb 2026 08:00:35.521    13 Feb 2026 08:06:26.468           350.947
                       8    13 Feb 2026 21:56:11.654    13 Feb 2026 22:01:30.568           318.914
                       9    13 Feb 2026 23:35:31.760    13 Feb 2026 23:42:06.862           395.102
                      10    14 Feb 2026 01:17:18.417    14 Feb 2026 01:23:28.789           370.372
                      11    14 Feb 2026 02:59:41.107    14 Feb 2026 03:05:26.525           345.419
                      12    14 Feb 2026 04:41:05.909    14 Feb 2026 04:47:20.010           374.102
                      13    14 Feb 2026 06:21:56.831    14 Feb 2026 06:28:33.181           396.350
                      14    14 Feb 2026 08:03:57.327    14 Feb 2026 08:09:02.179           304.853
                      15    14 Feb 2026 21:58:08.375    14 Feb 2026 22:04:05.075           356.701
                      16    14 Feb 2026 23:38:18.640    14 Feb 2026 23:44:52.442           393.802
                      17    15 Feb 2026 01:20:26.514    15 Feb 2026 01:26:26.061           359.548
                      18    15 Feb 2026 03:02:38.475    15 Feb 2026 03:08:26.950           348.476
                      19    15 Feb 2026 04:43:47.122    15 Feb 2026 04:50:11.636           384.514
                      20    15 Feb 2026 06:24:42.788    15 Feb 2026 06:31:11.742           388.955
                      21    15 Feb 2026 08:07:49.249    15 Feb 2026 08:11:31.353           222.105

Statistics
----------
Min Duration          21    15 Feb 2026 08:07:49.249    15 Feb 2026 08:11:31.353           222.105
Max Duration           6    13 Feb 2026 06:19:10.137    13 Feb 2026 06:25:46.542           396.405
Mean Duration                                                                              354.528
Total Duration                                                                            7445.078
