Simulation/Extra/3 days simulation - 0 Beta/Inmarsat3.txt

                                                                               4 Aug 2024 19:13:28
Satellite-NOVASAT-16U-Sensor-LargeAngle-To-Satellite-Inmarsat4F4_39215:  Access Summary Report


LargeAngle-To-Inmarsat4F4_39215
-------------------------------
                  Access        Start Time (UTCG)           Stop Time (UTCG)        Duration (sec)
                  ------    ------------------------    ------------------------    --------------
                       1    12 Feb 2026 11:03:08.835    12 Feb 2026 11:32:51.760          1782.925
                       2    12 Feb 2026 12:44:22.776    12 Feb 2026 13:15:22.122          1859.346
                       3    12 Feb 2026 14:27:47.958    12 Feb 2026 15:00:41.924          1973.967
                       4    12 Feb 2026 16:14:17.360    12 Feb 2026 16:47:06.580          1969.220
                       5    12 Feb 2026 17:59:57.124    12 Feb 2026 18:30:53.483          1856.358
                       6    12 Feb 2026 19:42:43.457    12 Feb 2026 20:12:27.705          1784.248
                       7    12 Feb 2026 21:23:50.226    12 Feb 2026 21:53:15.029          1764.803
                       8    12 Feb 2026 23:04:30.945    12 Feb 2026 23:34:23.614          1792.669
                       9    13 Feb 2026 00:45:55.795    13 Feb 2026 01:17:11.559          1875.764
                      10    13 Feb 2026 02:29:46.558    13 Feb 2026 03:02:51.144          1984.587
                      11    13 Feb 2026 04:16:28.980    13 Feb 2026 04:49:02.660          1953.680
                      12    13 Feb 2026 06:01:47.566    13 Feb 2026 06:32:27.688          1840.122
                      13    13 Feb 2026 07:44:16.704    13 Feb 2026 08:13:51.933          1775.229
                      14    13 Feb 2026 09:25:16.515    13 Feb 2026 09:54:38.630          1762.115
                      15    13 Feb 2026 11:05:58.713    13 Feb 2026 11:35:55.326          1796.614
                      16    13 Feb 2026 12:47:35.632    13 Feb 2026 13:19:02.824          1887.192
                      17    13 Feb 2026 14:31:50.675    13 Feb 2026 15:05:00.292          1989.617
                      18    13 Feb 2026 16:18:34.364    13 Feb 2026 16:50:55.049          1940.685
                      19    13 Feb 2026 18:03:27.293    13 Feb 2026 18:33:59.617          1832.324
                      20    13 Feb 2026 19:45:40.487    13 Feb 2026 20:15:15.319          1774.832
                      21    13 Feb 2026 21:26:35.059    13 Feb 2026 21:56:02.357          1767.298
                      22    13 Feb 2026 23:07:20.342    13 Feb 2026 23:37:28.172          1807.830
                      23    14 Feb 2026 00:49:11.643    14 Feb 2026 01:20:55.700          1904.057
                      24    14 Feb 2026 02:33:53.786    14 Feb 2026 03:07:06.836          1993.050
                      25    14 Feb 2026 04:20:39.418    14 Feb 2026 04:52:42.035          1922.617
                      26    14 Feb 2026 06:05:09.798    14 Feb 2026 06:35:27.743          1817.944
                      27    14 Feb 2026 07:47:08.689    14 Feb 2026 08:16:36.253          1767.564
                      28    14 Feb 2026 09:27:58.546    14 Feb 2026 09:57:24.826          1766.280
                      29    14 Feb 2026 11:08:47.616    14 Feb 2026 11:39:01.437          1813.821
                      30    14 Feb 2026 12:50:54.414    14 Feb 2026 13:22:50.829          1916.415
                      31    14 Feb 2026 14:35:59.889    14 Feb 2026 15:09:12.213          1992.324
                      32    14 Feb 2026 16:22:35.903    14 Feb 2026 16:54:25.782          1909.879
                      33    14 Feb 2026 18:06:41.856    14 Feb 2026 18:36:54.191          1812.335
                      34    14 Feb 2026 19:48:28.053    14 Feb 2026 20:17:56.681          1768.628
                      35    14 Feb 2026 21:29:14.886    14 Feb 2026 21:58:47.645          1772.759
                      36    14 Feb 2026 23:10:09.448    14 Feb 2026 23:40:35.952          1826.504
                      37    15 Feb 2026 00:52:34.367    15 Feb 2026 01:24:46.795          1932.428
                      38    15 Feb 2026 02:38:05.324    15 Feb 2026 03:11:13.167          1987.843
                      39    15 Feb 2026 04:24:32.813    15 Feb 2026 04:56:04.214          1891.401
                      40    15 Feb 2026 06:08:17.203    15 Feb 2026 06:38:17.098          1799.895
                      41    15 Feb 2026 07:49:51.860    15 Feb 2026 08:19:14.913          1763.052
                      42    15 Feb 2026 09:30:36.150    15 Feb 2026 10:00:00.000          1763.850

Statistics
----------
Min Duration          14    13 Feb 2026 09:25:16.515    13 Feb 2026 09:54:38.630          1762.115
Max Duration          24    14 Feb 2026 02:33:53.786    14 Feb 2026 03:07:06.836          1993.050
Mean Duration                                                                             1854.621
Total Duration                                                                           77894.071
