Simulation/Extra/3 days simulation - 0 Beta/Inmarsat1.txt

                                                                               4 Aug 2024 19:13:10
Satellite-NOVASAT-16U-Sensor-LargeAngle-To-Satellite-Inmarsat3F2_24307:  Access Summary Report


LargeAngle-To-Inmarsat3F2_24307
-------------------------------
                  Access        Start Time (UTCG)           Stop Time (UTCG)        Duration (sec)
                  ------    ------------------------    ------------------------    --------------
                       1    12 Feb 2026 10:27:38.188    12 Feb 2026 10:59:35.601          1917.413
                       2    12 Feb 2026 12:12:51.195    12 Feb 2026 12:45:39.303          1968.109
                       3    12 Feb 2026 13:58:58.055    12 Feb 2026 14:30:26.131          1888.077
                       4    12 Feb 2026 15:42:45.816    12 Feb 2026 16:12:49.104          1803.288
                       5    12 Feb 2026 17:24:31.941    12 Feb 2026 17:53:58.634          1766.693
                       6    12 Feb 2026 19:05:28.535    12 Feb 2026 19:35:03.282          1774.747
                       7    12 Feb 2026 20:46:39.892    12 Feb 2026 21:17:08.884          1828.993
                       8    12 Feb 2026 22:29:23.939    12 Feb 2026 23:01:27.677          1923.738
                       9    13 Feb 2026 00:14:47.377    13 Feb 2026 00:47:28.638          1961.261
                      10    13 Feb 2026 02:00:37.707    13 Feb 2026 02:31:56.761          1879.054
                      11    13 Feb 2026 03:44:08.170    13 Feb 2026 04:14:09.230          1801.060
                      12    13 Feb 2026 05:25:47.729    13 Feb 2026 05:55:17.340          1769.611
                      13    13 Feb 2026 07:06:45.655    13 Feb 2026 07:36:27.475          1781.820
                      14    13 Feb 2026 08:48:05.954    13 Feb 2026 09:18:45.912          1839.958
                      15    13 Feb 2026 10:31:08.501    13 Feb 2026 11:03:20.340          1931.839
                      16    13 Feb 2026 12:16:45.952    13 Feb 2026 12:49:16.406          1950.454
                      17    13 Feb 2026 14:02:22.872    13 Feb 2026 14:33:26.092          1863.220
                      18    13 Feb 2026 15:45:37.349    13 Feb 2026 16:15:28.762          1791.413
                      19    13 Feb 2026 17:27:09.857    13 Feb 2026 17:56:35.773          1765.916
                      20    13 Feb 2026 19:08:08.446    13 Feb 2026 19:37:51.808          1783.362
                      21    13 Feb 2026 20:49:37.006    13 Feb 2026 21:20:23.382          1846.376
                      22    13 Feb 2026 22:32:55.054    13 Feb 2026 23:05:11.225          1936.171
                      23    14 Feb 2026 00:18:36.821    14 Feb 2026 00:50:58.878          1942.057
                      24    14 Feb 2026 02:03:55.089    14 Feb 2026 02:34:51.128          1856.040
                      25    14 Feb 2026 03:46:55.081    14 Feb 2026 04:16:45.626          1790.545
                      26    14 Feb 2026 05:28:23.077    14 Feb 2026 05:57:52.746          1769.670
                      27    14 Feb 2026 07:09:24.559    14 Feb 2026 07:39:15.659          1791.100
                      28    14 Feb 2026 08:51:03.997    14 Feb 2026 09:22:01.165          1857.168
                      29    14 Feb 2026 10:34:41.218    14 Feb 2026 11:07:01.537          1940.318
                      30    14 Feb 2026 12:20:30.667    14 Feb 2026 12:52:39.224          1928.557
                      31    14 Feb 2026 14:05:33.190    14 Feb 2026 14:36:14.897          1841.707
                      32    14 Feb 2026 15:48:19.513    14 Feb 2026 16:18:01.977          1782.464
                      33    14 Feb 2026 17:29:42.389    14 Feb 2026 17:59:09.660          1767.271
                      34    14 Feb 2026 19:10:46.158    14 Feb 2026 19:40:40.050          1793.892
                      35    14 Feb 2026 20:52:35.538    14 Feb 2026 21:23:39.663          1864.125
                      36    14 Feb 2026 22:36:27.642    14 Feb 2026 23:08:49.702          1942.060
                      37    15 Feb 2026 00:22:14.986    15 Feb 2026 00:54:14.784          1919.798
                      38    15 Feb 2026 02:06:58.661    15 Feb 2026 02:37:34.955          1836.295
                      39    15 Feb 2026 03:49:33.170    15 Feb 2026 04:19:15.952          1782.782
                      40    15 Feb 2026 05:30:53.381    15 Feb 2026 06:00:25.180          1771.799
                      41    15 Feb 2026 07:12:01.649    15 Feb 2026 07:42:03.835          1802.186
                      42    15 Feb 2026 08:54:03.795    15 Feb 2026 09:25:17.952          1874.157

Statistics
----------
Min Duration          19    13 Feb 2026 17:27:09.857    13 Feb 2026 17:56:35.773          1765.916
Max Duration           2    12 Feb 2026 12:12:51.195    12 Feb 2026 12:45:39.303          1968.109
Mean Duration                                                                             1848.251
Total Duration                                                                           77626.561
