Simulation/Extra/3 days simulation - 0 Beta/Inmarsat2.txt

                                                                               4 Aug 2024 19:13:17
Satellite-NOVASAT-16U-Sensor-LargeAngle-To-Satellite-Inmarsat4F3_33278:  Access Summary Report


LargeAngle-To-Inmarsat4F3_33278
-------------------------------
                  Access        Start Time (UTCG)           Stop Time (UTCG)        Duration (sec)
                  ------    ------------------------    ------------------------    --------------
                       1    12 Feb 2026 10:22:10.821    12 Feb 2026 10:53:22.782          1871.961
                       2    12 Feb 2026 12:06:02.944    12 Feb 2026 12:38:52.079          1969.134
                       3    12 Feb 2026 13:52:27.431    12 Feb 2026 14:24:48.771          1941.339
                       4    12 Feb 2026 15:37:36.305    12 Feb 2026 16:08:14.378          1838.073
                       5    12 Feb 2026 17:20:08.935    12 Feb 2026 17:49:45.823          1776.888
                       6    12 Feb 2026 19:01:16.716    12 Feb 2026 19:30:41.341          1764.626
                       7    12 Feb 2026 20:42:08.743    12 Feb 2026 21:12:06.809          1798.066
                       8    12 Feb 2026 22:23:55.672    12 Feb 2026 22:55:18.359          1882.686
                       9    13 Feb 2026 00:08:10.776    13 Feb 2026 00:41:03.237          1972.461
                      10    13 Feb 2026 01:54:34.487    13 Feb 2026 02:26:43.077          1928.590
                      11    13 Feb 2026 03:39:18.249    13 Feb 2026 04:09:48.621          1830.372
                      12    13 Feb 2026 05:21:35.295    13 Feb 2026 05:51:11.898          1776.603
                      13    13 Feb 2026 07:02:38.348    13 Feb 2026 07:32:08.395          1770.047
                      14    13 Feb 2026 08:43:34.364    13 Feb 2026 09:13:43.694          1809.330
                      15    13 Feb 2026 10:25:36.633    13 Feb 2026 10:57:15.019          1898.386
                      16    13 Feb 2026 12:10:17.234    13 Feb 2026 12:43:11.344          1974.110
                      17    13 Feb 2026 13:56:41.147    13 Feb 2026 14:28:32.024          1910.877
                      18    13 Feb 2026 15:41:03.202    13 Feb 2026 16:11:19.396          1816.194
                      19    13 Feb 2026 17:23:06.384    13 Feb 2026 17:52:35.958          1769.574
                      20    13 Feb 2026 19:04:05.399    13 Feb 2026 19:33:34.730          1769.331
                      21    13 Feb 2026 20:45:06.211    13 Feb 2026 21:15:21.695          1815.484
                      22    13 Feb 2026 22:27:24.660    13 Feb 2026 22:59:14.132          1909.471
                      23    14 Feb 2026 00:12:26.026    14 Feb 2026 00:45:17.996          1971.970
                      24    14 Feb 2026 01:58:38.913    14 Feb 2026 02:30:17.541          1898.629
                      25    14 Feb 2026 03:42:37.362    14 Feb 2026 04:12:48.157          1810.795
                      26    14 Feb 2026 05:24:28.402    14 Feb 2026 05:53:59.247          1770.845
                      27    14 Feb 2026 07:05:25.064    14 Feb 2026 07:35:01.160          1776.096
                      28    14 Feb 2026 08:46:32.470    14 Feb 2026 09:17:00.517          1828.047
                      29    14 Feb 2026 10:29:09.752    14 Feb 2026 11:01:13.343          1923.590
                      30    14 Feb 2026 12:14:33.691    14 Feb 2026 12:47:19.864          1966.173
                      31    14 Feb 2026 14:00:37.102    14 Feb 2026 14:31:57.856          1880.754
                      32    14 Feb 2026 15:44:15.025    14 Feb 2026 16:14:13.743          1798.718
                      33    14 Feb 2026 17:25:55.141    14 Feb 2026 17:55:20.782          1765.641
                      34    14 Feb 2026 19:06:50.137    14 Feb 2026 19:36:27.337          1777.200
                      35    14 Feb 2026 20:48:05.008    14 Feb 2026 21:18:41.144          1836.136
                      36    14 Feb 2026 22:31:01.379    14 Feb 2026 23:03:14.840          1933.460
                      37    15 Feb 2026 00:16:40.257    15 Feb 2026 00:49:19.548          1959.291
                      38    15 Feb 2026 02:02:25.238    15 Feb 2026 02:33:35.371          1870.133
                      39    15 Feb 2026 03:45:42.451    15 Feb 2026 04:15:37.857          1795.406
                      40    15 Feb 2026 05:27:13.499    15 Feb 2026 05:56:41.861          1768.362
                      41    15 Feb 2026 07:08:08.465    15 Feb 2026 07:37:53.761          1785.296
                      42    15 Feb 2026 08:49:32.790    15 Feb 2026 09:20:22.485          1849.695

Statistics
----------
Min Duration           6    12 Feb 2026 19:01:16.716    12 Feb 2026 19:30:41.341          1764.626
Max Duration          16    13 Feb 2026 12:10:17.234    13 Feb 2026 12:43:11.344          1974.110
Mean Duration                                                                             1851.425
Total Duration                                                                           77759.840
