Simulation/Extra/3 days simulation - 0 Beta/Sun.txt

                                                                     4 Aug 2024 19:12:25
Satellite-NOVASAT-16U:  Lighting


Sunlight Times
--------------
                      Start Time (UTCG)           Stop Time (UTCG)        Duration (sec)
                  ------------------------    ------------------------    --------------
                  12 Feb 2026 10:00:00.000    12 Feb 2026 10:23:58.855          1438.855
                  12 Feb 2026 10:59:28.198    12 Feb 2026 12:00:09.159          3640.961
                  12 Feb 2026 12:35:38.987    12 Feb 2026 13:36:19.484          3640.497
                  12 Feb 2026 14:11:49.759    12 Feb 2026 15:12:29.893          3640.133
                  12 Feb 2026 15:48:00.586    12 Feb 2026 16:48:40.218          3639.633
                  12 Feb 2026 17:24:11.322    12 Feb 2026 18:24:50.562          3639.240
                  12 Feb 2026 19:00:22.044    12 Feb 2026 20:01:00.939          3638.895
                  12 Feb 2026 20:36:32.802    12 Feb 2026 21:37:11.269          3638.467
                  12 Feb 2026 22:12:43.498    12 Feb 2026 23:13:21.614          3638.116
                  12 Feb 2026 23:48:54.174    13 Feb 2026 00:49:31.899          3637.725
                  13 Feb 2026 01:25:04.773    13 Feb 2026 02:25:42.125          3637.352
                  13 Feb 2026 03:01:15.278    13 Feb 2026 04:01:52.340          3637.062
                  13 Feb 2026 04:37:25.780    13 Feb 2026 05:38:02.673          3636.894
                  13 Feb 2026 06:13:36.386    13 Feb 2026 07:14:13.097          3636.711
                  13 Feb 2026 07:49:47.066    13 Feb 2026 08:50:23.412          3636.346
                  13 Feb 2026 09:25:57.606    13 Feb 2026 10:26:33.683          3636.078
                  13 Feb 2026 11:02:08.070    13 Feb 2026 12:02:43.919          3635.849
                  13 Feb 2026 12:38:18.453    13 Feb 2026 13:38:54.201          3635.748
                  13 Feb 2026 14:14:28.860    13 Feb 2026 15:15:04.542          3635.682
                  13 Feb 2026 15:50:39.297    13 Feb 2026 16:51:14.793          3635.496
                  13 Feb 2026 17:26:49.633    13 Feb 2026 18:27:25.120          3635.487
                  13 Feb 2026 19:03:00.018    13 Feb 2026 20:03:35.427          3635.409
                  13 Feb 2026 20:39:10.387    13 Feb 2026 21:39:45.702          3635.315
                  13 Feb 2026 22:15:20.711    13 Feb 2026 23:15:55.987          3635.276
                  13 Feb 2026 23:51:31.012    14 Feb 2026 00:52:06.202          3635.190
                  14 Feb 2026 01:27:41.217    14 Feb 2026 02:28:16.368          3635.152
                  14 Feb 2026 03:03:51.359    14 Feb 2026 04:04:26.563          3635.205
                  14 Feb 2026 04:40:01.526    14 Feb 2026 05:40:36.901          3635.375
                  14 Feb 2026 06:16:11.824    14 Feb 2026 07:16:47.267          3635.443
                  14 Feb 2026 07:52:22.136    14 Feb 2026 08:52:57.526          3635.390
                  14 Feb 2026 09:28:32.307    14 Feb 2026 10:29:07.761          3635.454
                  14 Feb 2026 11:04:42.418    14 Feb 2026 12:05:17.957          3635.539
                  14 Feb 2026 12:40:52.466    14 Feb 2026 13:41:28.237          3635.771
                  14 Feb 2026 14:17:02.556    14 Feb 2026 15:17:38.524          3635.968
                  14 Feb 2026 15:53:12.638    14 Feb 2026 16:53:48.744          3636.106
                  14 Feb 2026 17:29:22.642    14 Feb 2026 18:29:59.062          3636.421
                  14 Feb 2026 19:05:32.724    14 Feb 2026 20:06:09.341          3636.617
                  14 Feb 2026 20:41:42.766    14 Feb 2026 21:42:19.604          3636.839
                  14 Feb 2026 22:17:52.774    14 Feb 2026 23:18:29.858          3637.084
                  14 Feb 2026 23:54:02.751    15 Feb 2026 00:54:40.039          3637.288
                  15 Feb 2026 01:30:12.629    15 Feb 2026 02:30:50.194          3637.565
                  15 Feb 2026 03:06:22.470    15 Feb 2026 04:07:00.420          3637.950
                  15 Feb 2026 04:42:32.379    15 Feb 2026 05:43:10.798          3638.420
                  15 Feb 2026 06:18:42.422    15 Feb 2026 07:19:21.131          3638.709
                  15 Feb 2026 07:54:52.402    15 Feb 2026 08:55:31.379          3638.976
                  15 Feb 2026 09:31:02.270    15 Feb 2026 10:00:00.000          1737.730

Statistics
----------
Min Duration      12 Feb 2026 10:00:00.000    12 Feb 2026 10:23:58.855          1438.855
Max Duration      12 Feb 2026 10:59:28.198    12 Feb 2026 12:00:09.159          3640.961
Mean Duration                                                                   3547.857
Total Duration                                                                163201.416
