Simulation/Extra/3 days simulation - max Beta/Inmarsat3.txt

                                                                               4 Aug 2024 19:04:12
Satellite-NOVASAT-16U-Sensor-LargeAngle-To-Satellite-Inmarsat4F4_39215:  Access Summary Report


LargeAngle-To-Inmarsat4F4_39215
-------------------------------
                  Access        Start Time (UTCG)           Stop Time (UTCG)        Duration (sec)
                  ------    ------------------------    ------------------------    --------------
                       1    25 Jan 2026 10:00:00.000    25 Jan 2026 10:20:54.189          1254.189
                       2    25 Jan 2026 11:34:32.412    25 Jan 2026 12:06:54.481          1942.069
                       3    25 Jan 2026 13:19:37.983    25 Jan 2026 13:50:10.696          1832.713
                       4    25 Jan 2026 15:02:02.698    25 Jan 2026 15:31:36.560          1773.863
                       5    25 Jan 2026 16:43:06.258    25 Jan 2026 17:12:31.526          1765.267
                       6    25 Jan 2026 18:23:58.349    25 Jan 2026 18:54:02.689          1804.340
                       7    25 Jan 2026 20:05:52.982    25 Jan 2026 20:37:31.658          1898.675
                       8    25 Jan 2026 21:50:31.847    25 Jan 2026 22:23:43.207          1991.360
                       9    25 Jan 2026 23:37:16.805    26 Jan 2026 00:09:27.739          1930.934
                      10    26 Jan 2026 01:21:56.287    26 Jan 2026 01:52:24.935          1828.648
                      11    26 Jan 2026 03:04:05.140    26 Jan 2026 03:33:42.664          1777.524
                      12    26 Jan 2026 04:45:03.294    26 Jan 2026 05:14:38.311          1775.018
                      13    26 Jan 2026 06:25:58.624    26 Jan 2026 06:56:19.798          1821.174
                      14    26 Jan 2026 08:08:09.216    26 Jan 2026 08:40:11.084          1921.868
                      15    26 Jan 2026 09:53:18.301    26 Jan 2026 10:26:35.200          1996.899
                      16    26 Jan 2026 11:40:05.667    26 Jan 2026 12:11:57.534          1911.867
                      17    26 Jan 2026 13:24:23.156    26 Jan 2026 13:54:34.682          1811.526
                      18    26 Jan 2026 15:06:17.447    26 Jan 2026 15:35:44.160          1766.713
                      19    26 Jan 2026 16:47:10.273    26 Jan 2026 17:16:40.646          1770.373
                      20    26 Jan 2026 18:28:09.190    26 Jan 2026 18:58:33.052          1823.863
                      21    26 Jan 2026 20:10:36.146    26 Jan 2026 20:42:47.351          1931.206
                      22    26 Jan 2026 21:56:07.864    26 Jan 2026 22:29:21.199          1993.335
                      23    26 Jan 2026 23:42:41.616    27 Jan 2026 00:14:22.723          1901.108
                      24    27 Jan 2026 01:26:34.225    27 Jan 2026 01:56:43.691          1809.466
                      25    27 Jan 2026 03:08:15.752    27 Jan 2026 03:37:47.581          1771.829
                      26    27 Jan 2026 04:49:05.418    27 Jan 2026 05:18:47.082          1781.664
                      27    27 Jan 2026 06:30:10.235    27 Jan 2026 07:00:53.015          1842.780
                      28    27 Jan 2026 08:12:57.751    27 Jan 2026 08:45:31.403          1953.653
                      29    27 Jan 2026 09:58:57.982    27 Jan 2026 10:32:07.714          1989.732
                      30    27 Jan 2026 11:45:22.810    27 Jan 2026 12:16:44.068          1881.258
                      31    27 Jan 2026 13:28:54.068    27 Jan 2026 13:58:48.348          1794.280
                      32    27 Jan 2026 15:10:23.744    27 Jan 2026 15:39:46.621          1762.877
                      33    27 Jan 2026 16:51:10.407    27 Jan 2026 17:20:49.364          1778.957
                      34    27 Jan 2026 18:32:21.737    27 Jan 2026 19:03:09.588          1847.851
                      35    27 Jan 2026 20:15:29.716    27 Jan 2026 20:48:12.033          1962.317
                      36    27 Jan 2026 22:01:46.830    27 Jan 2026 22:34:47.705          1980.875
                      37    27 Jan 2026 23:47:49.602    28 Jan 2026 00:19:01.666          1872.064
                      38    28 Jan 2026 01:30:58.758    28 Jan 2026 02:00:52.825          1794.067
                      39    28 Jan 2026 03:12:18.517    28 Jan 2026 03:41:47.880          1769.363
                      40    28 Jan 2026 04:53:04.211    28 Jan 2026 05:22:56.108          1791.897
                      41    28 Jan 2026 06:34:24.518    28 Jan 2026 07:05:33.313          1868.794
                      42    28 Jan 2026 08:17:57.777    28 Jan 2026 08:50:59.189          1981.412

Statistics
----------
Min Duration           1    25 Jan 2026 10:00:00.000    25 Jan 2026 10:20:54.189          1254.189
Max Duration          15    26 Jan 2026 09:53:18.301    26 Jan 2026 10:26:35.200          1996.899
Mean Duration                                                                             1844.278
Total Duration                                                                           77459.667
