Simulation/Communication/Inmarsat2.txt

                                                                             5 Jul 2024 09:22:06
Satellite-NOVASAT-16U-Sensor-LargeAngle-To-Satellite-Inmarsat4F3_33278:  Access Summary Report


LargeAngle-To-Inmarsat4F3_33278
-------------------------------
                  Access       Start Time (UTCG)           Stop Time (UTCG)       Duration (sec)
                  ------    -----------------------    -----------------------    --------------
                       1    1 Jan 2026 10:22:17.845    1 Jan 2026 10:52:10.384          1792.539
                       2    1 Jan 2026 12:04:00.427    1 Jan 2026 12:33:42.580          1782.153
                       3    1 Jan 2026 13:45:29.652    1 Jan 2026 14:15:42.565          1812.913
                       4    1 Jan 2026 15:27:51.239    1 Jan 2026 15:59:15.597          1884.359
                       5    1 Jan 2026 17:12:18.934    1 Jan 2026 17:44:48.744          1949.811
                       6    1 Jan 2026 18:58:22.581    1 Jan 2026 19:30:15.556          1912.976
                       7    1 Jan 2026 20:43:06.267    1 Jan 2026 21:13:39.753          1833.486
                       8    1 Jan 2026 22:25:47.248    1 Jan 2026 22:55:35.154          1787.907
                       9    2 Jan 2026 00:07:22.816    2 Jan 2026 00:37:06.888          1784.072
                      10    2 Jan 2026 01:48:54.634    2 Jan 2026 02:19:16.478          1821.843
                      11    2 Jan 2026 03:31:30.806    2 Jan 2026 04:03:09.218          1898.412
                      12    2 Jan 2026 05:16:21.247    2 Jan 2026 05:48:54.177          1952.930
                      13    2 Jan 2026 07:02:24.208    2 Jan 2026 07:34:04.966          1900.758
                      14    2 Jan 2026 08:46:46.907    2 Jan 2026 09:17:10.485          1823.577
                      15    2 Jan 2026 10:29:12.921    2 Jan 2026 10:58:57.367          1784.445
                      16    2 Jan 2026 12:10:43.307    2 Jan 2026 12:40:30.299          1786.992
                      17    2 Jan 2026 13:52:19.759    2 Jan 2026 14:22:51.565          1831.806
                      18    2 Jan 2026 15:35:13.319    2 Jan 2026 16:07:05.780          1912.461
                      19    2 Jan 2026 17:20:26.929    2 Jan 2026 17:52:59.887          1952.958
                      20    2 Jan 2026 19:06:25.143    2 Jan 2026 19:37:52.874          1887.731
                      21    2 Jan 2026 20:50:26.768    2 Jan 2026 21:20:41.096          1814.328
                      22    2 Jan 2026 22:32:39.033    2 Jan 2026 23:02:20.904          1781.872
                      23    3 Jan 2026 00:14:05.330    3 Jan 2026 00:43:56.397          1791.067
                      24    3 Jan 2026 01:55:47.775    3 Jan 2026 02:26:30.878          1843.102
                      25    3 Jan 2026 03:39:00.226    3 Jan 2026 04:11:06.122          1925.897
                      26    3 Jan 2026 05:24:33.607    3 Jan 2026 05:57:03.122          1949.515
                      27    3 Jan 2026 07:10:20.942    3 Jan 2026 07:41:35.709          1874.768
                      28    3 Jan 2026 08:54:01.673    3 Jan 2026 09:24:08.033          1806.360
                      29    3 Jan 2026 10:36:01.985    3 Jan 2026 11:05:42.377          1780.392
                      30    3 Jan 2026 12:17:25.946    3 Jan 2026 12:47:22.084          1796.138
                      31    3 Jan 2026 13:59:16.574    3 Jan 2026 14:30:11.930          1855.356
                      32    3 Jan 2026 15:42:50.644    3 Jan 2026 16:15:08.910          1938.267
                      33    3 Jan 2026 17:28:42.086    3 Jan 2026 18:01:05.223          1943.137
                      34    3 Jan 2026 19:14:15.394    3 Jan 2026 19:45:17.181          1861.787
                      35    3 Jan 2026 20:57:36.091    3 Jan 2026 21:27:35.265          1799.174
                      36    3 Jan 2026 22:39:25.721    3 Jan 2026 23:09:05.594          1779.872
                      37    4 Jan 2026 00:20:48.535    4 Jan 2026 00:50:51.032          1802.497
                      38    4 Jan 2026 02:02:48.975    4 Jan 2026 02:33:57.786          1868.810
                      39    4 Jan 2026 03:46:45.660    4 Jan 2026 04:19:14.351          1948.691
                      40    4 Jan 2026 05:32:49.446    4 Jan 2026 06:05:03.462          1934.016
                      41    4 Jan 2026 07:18:04.422    4 Jan 2026 07:48:54.003          1849.580
                      42    4 Jan 2026 09:01:06.168    4 Jan 2026 09:30:59.393          1793.225

Statistics
----------
Min Duration          36    3 Jan 2026 22:39:25.721    3 Jan 2026 23:09:05.594          1779.872
Max Duration          19    2 Jan 2026 17:20:26.929    2 Jan 2026 17:52:59.887          1952.958
Mean Duration                                                                           1853.142
Total Duration                                                                         77831.980
