Simulation/Communication/Inmarsat3old.txt

                                                                             5 Jul 2024 09:22:16
Satellite-NOVASAT-16U-Sensor-LargeAngle-To-Satellite-Inmarsat4F4_39215:  Access Summary Report


LargeAngle-To-Inmarsat4F4_39215
-------------------------------
                  Access       Start Time (UTCG)           Stop Time (UTCG)       Duration (sec)
                  ------    -----------------------    -----------------------    --------------
                       1    1 Jan 2026 11:06:14.922    1 Jan 2026 11:36:48.330          1833.408
                       2    1 Jan 2026 12:48:55.273    1 Jan 2026 13:18:43.199          1787.927
                       3    1 Jan 2026 14:30:30.798    1 Jan 2026 15:00:14.855          1784.056
                       4    1 Jan 2026 16:12:02.954    1 Jan 2026 16:42:24.577          1821.623
                       5    1 Jan 2026 17:54:39.525    1 Jan 2026 18:26:17.112          1897.587
                       6    1 Jan 2026 19:39:29.239    1 Jan 2026 20:12:00.798          1951.560
                       7    1 Jan 2026 21:25:30.128    1 Jan 2026 21:57:10.447          1900.319
                       8    1 Jan 2026 23:09:52.084    1 Jan 2026 23:40:15.932          1823.848
                       9    2 Jan 2026 00:52:18.566    2 Jan 2026 01:22:03.323          1784.757
                      10    2 Jan 2026 02:33:49.841    2 Jan 2026 03:03:36.858          1787.017
                      11    2 Jan 2026 04:15:27.202    2 Jan 2026 04:45:58.303          1831.101
                      12    2 Jan 2026 05:58:20.838    2 Jan 2026 06:30:11.119          1910.280
                      13    2 Jan 2026 07:43:31.783    2 Jan 2026 08:16:02.241          1950.458
                      14    2 Jan 2026 09:29:26.813    2 Jan 2026 10:00:54.228          1887.414
                      15    2 Jan 2026 11:13:28.441    2 Jan 2026 11:43:43.430          1814.989
                      16    2 Jan 2026 12:55:42.195    2 Jan 2026 13:25:24.624          1782.428
                      17    2 Jan 2026 14:37:10.208    2 Jan 2026 15:07:01.203          1790.995
                      18    2 Jan 2026 16:18:53.963    2 Jan 2026 16:49:35.598          1841.635
                      19    2 Jan 2026 18:02:05.798    2 Jan 2026 18:34:07.940          1922.142
                      20    2 Jan 2026 19:47:34.553    2 Jan 2026 20:20:00.864          1946.311
                      21    2 Jan 2026 21:33:18.549    2 Jan 2026 22:04:33.308          1874.759
                      22    2 Jan 2026 23:17:00.391    2 Jan 2026 23:47:07.763          1807.372
                      23    3 Jan 2026 00:59:03.227    3 Jan 2026 01:28:44.346          1781.119
                      24    3 Jan 2026 02:40:29.667    3 Jan 2026 03:10:25.550          1795.883
                      25    3 Jan 2026 04:22:21.859    3 Jan 2026 04:53:14.823          1852.963
                      26    3 Jan 2026 06:05:54.181    3 Jan 2026 06:38:07.060          1932.879
                      27    3 Jan 2026 07:51:38.843    3 Jan 2026 08:23:58.431          1939.589
                      28    3 Jan 2026 09:37:08.965    3 Jan 2026 10:08:11.175          1862.211
                      29    3 Jan 2026 11:20:31.851    3 Jan 2026 11:50:32.377          1800.526
                      30    3 Jan 2026 13:02:24.925    3 Jan 2026 13:32:05.615          1780.690
                      31    3 Jan 2026 14:43:50.850    3 Jan 2026 15:13:52.719          1801.869
                      32    3 Jan 2026 16:25:52.853    3 Jan 2026 16:56:58.010          1865.157
                      33    3 Jan 2026 18:09:46.208    3 Jan 2026 18:42:07.903          1941.695
                      34    3 Jan 2026 19:55:41.545    3 Jan 2026 20:27:52.126          1930.581
                      35    3 Jan 2026 21:40:54.319    3 Jan 2026 22:11:44.806          1850.487
                      36    3 Jan 2026 23:23:59.487    3 Jan 2026 23:53:54.346          1794.859
                      37    4 Jan 2026 01:05:44.493    4 Jan 2026 01:35:25.714          1781.221
                      38    4 Jan 2026 02:47:11.571    4 Jan 2026 03:17:20.329          1808.758
                      39    4 Jan 2026 04:29:25.570    4 Jan 2026 05:00:43.445          1877.875
                      40    4 Jan 2026 06:13:41.587    4 Jan 2026 06:46:09.937          1948.350
                      41    4 Jan 2026 07:59:44.212    4 Jan 2026 08:31:44.073          1919.861
                      42    4 Jan 2026 09:44:38.301    4 Jan 2026 10:00:00.000           921.699

Statistics
----------
Min Duration          42    4 Jan 2026 09:44:38.301    4 Jan 2026 10:00:00.000           921.699
Max Duration           6    1 Jan 2026 19:39:29.239    1 Jan 2026 20:12:00.798          1951.560
Mean Duration                                                                           1831.435
Total Duration                                                                         76920.256
