Simulation/Communication/NOVASAT-16U Sun.txt

                                                                    29 Jul 2024 18:33:24
Satellite-NOVASAT-16U:  Lighting


Sunlight Times
--------------
                      Start Time (UTCG)           Stop Time (UTCG)        Duration (sec)
                  ------------------------    ------------------------    --------------
                   1 Jan 2026 10:00:00.000     1 Jan 2026 10:17:31.597          1051.597
                   1 Jan 2026 10:52:13.279     1 Jan 2026 11:53:55.618          3702.339
                   1 Jan 2026 12:28:37.665     1 Jan 2026 13:30:19.788          3702.123
                   1 Jan 2026 14:05:02.164     1 Jan 2026 15:06:43.771          3701.608
                   1 Jan 2026 15:41:26.498     1 Jan 2026 16:43:07.808          3701.310
                   1 Jan 2026 17:17:50.854     1 Jan 2026 18:19:31.797          3700.943
                   1 Jan 2026 18:54:15.180     1 Jan 2026 19:55:55.587          3700.408
                   1 Jan 2026 20:30:39.347     1 Jan 2026 21:32:19.474          3700.127
                   1 Jan 2026 22:07:03.638     1 Jan 2026 23:08:43.396          3699.757
                   1 Jan 2026 23:43:27.959     2 Jan 2026 00:45:07.341          3699.381
                   2 Jan 2026 01:19:52.212     2 Jan 2026 02:21:31.259          3699.047
                   2 Jan 2026 02:56:16.540     2 Jan 2026 03:57:54.990          3698.451
                   2 Jan 2026 04:32:40.687     2 Jan 2026 05:34:18.663          3697.976
                   2 Jan 2026 06:09:04.739     2 Jan 2026 07:10:42.360          3697.621
                   2 Jan 2026 07:45:28.870     2 Jan 2026 08:47:05.950          3697.080
                   2 Jan 2026 09:21:52.888     2 Jan 2026 10:23:29.549          3696.662
                   2 Jan 2026 10:58:16.899     2 Jan 2026 11:59:53.234          3696.335
                   2 Jan 2026 12:34:41.058     2 Jan 2026 13:36:16.793          3695.735
                   2 Jan 2026 14:11:05.092     2 Jan 2026 15:12:40.382          3695.290
                   2 Jan 2026 15:47:29.138     2 Jan 2026 16:49:03.924          3694.786
                   2 Jan 2026 17:23:53.147     2 Jan 2026 18:25:27.318          3694.171
                   2 Jan 2026 19:00:16.982     2 Jan 2026 20:01:50.722          3693.740
                   2 Jan 2026 20:36:40.914     2 Jan 2026 21:38:14.091          3693.177
                   2 Jan 2026 22:13:04.814     2 Jan 2026 23:14:37.523          3692.709
                   2 Jan 2026 23:49:28.689     3 Jan 2026 00:51:01.042          3692.353
                   3 Jan 2026 01:25:52.692     3 Jan 2026 02:27:24.342          3691.650
                   3 Jan 2026 03:02:16.509     3 Jan 2026 04:03:47.589          3691.081
                   3 Jan 2026 04:38:40.225     3 Jan 2026 05:40:10.821          3690.596
                   3 Jan 2026 06:15:03.980     3 Jan 2026 07:16:33.904          3689.924
                   3 Jan 2026 07:51:27.609     3 Jan 2026 08:52:57.047          3689.439
                   3 Jan 2026 09:27:51.242     3 Jan 2026 10:29:20.172          3688.929
                   3 Jan 2026 11:04:14.924     3 Jan 2026 12:05:43.267          3688.344
                   3 Jan 2026 12:40:38.562     3 Jan 2026 13:42:06.408          3687.846
                   3 Jan 2026 14:17:02.262     3 Jan 2026 15:18:29.453          3687.191
                   3 Jan 2026 15:53:25.873     3 Jan 2026 16:54:52.425          3686.552
                   3 Jan 2026 17:29:49.337     3 Jan 2026 18:31:15.373          3686.036
                   3 Jan 2026 19:06:12.872     3 Jan 2026 20:07:38.197          3685.325
                   3 Jan 2026 20:42:36.303     3 Jan 2026 21:44:01.086          3684.783
                   3 Jan 2026 22:18:59.727     3 Jan 2026 23:20:24.096          3684.370
                   3 Jan 2026 23:55:23.285     4 Jan 2026 00:56:46.968          3683.684
                   4 Jan 2026 01:31:46.714     4 Jan 2026 02:33:09.781          3683.068
                   4 Jan 2026 03:08:10.062     4 Jan 2026 04:09:32.531          3682.469
                   4 Jan 2026 04:44:33.386     4 Jan 2026 05:45:55.133          3681.748
                   4 Jan 2026 06:20:56.561     4 Jan 2026 07:22:17.801          3681.240
                   4 Jan 2026 07:57:19.808     4 Jan 2026 08:58:40.398          3680.589
                   4 Jan 2026 09:33:42.976     4 Jan 2026 10:35:02.975          3679.999
                   4 Jan 2026 11:10:06.114     4 Jan 2026 12:11:25.655          3679.541
                   4 Jan 2026 12:46:29.419     4 Jan 2026 13:47:48.200          3678.781
                   4 Jan 2026 14:22:52.568     4 Jan 2026 15:24:10.727          3678.159
                   4 Jan 2026 15:59:15.629     4 Jan 2026 17:00:33.246          3677.616
                   4 Jan 2026 17:35:38.736     4 Jan 2026 18:36:55.571          3676.835
                   4 Jan 2026 19:12:01.679     4 Jan 2026 20:13:17.945          3676.267
                   4 Jan 2026 20:48:24.631     4 Jan 2026 21:49:40.397          3675.766
                   4 Jan 2026 22:24:47.674     4 Jan 2026 23:26:02.803          3675.129
                   5 Jan 2026 00:01:10.625     5 Jan 2026 01:02:25.215          3674.591
                   5 Jan 2026 01:37:33.595     5 Jan 2026 02:38:47.489          3673.894
                   5 Jan 2026 03:13:56.457     5 Jan 2026 04:15:09.656          3673.199
                   5 Jan 2026 04:50:19.159     5 Jan 2026 05:51:31.840          3672.681
                   5 Jan 2026 06:26:41.953     5 Jan 2026 07:27:53.950          3671.997
                   5 Jan 2026 08:03:04.654     5 Jan 2026 09:04:16.032          3671.378
                   5 Jan 2026 09:39:27.250     5 Jan 2026 10:40:38.219          3670.968
                   5 Jan 2026 11:15:50.062     5 Jan 2026 12:17:00.308          3670.246
                   5 Jan 2026 12:52:12.756     5 Jan 2026 13:53:22.382          3669.626
                   5 Jan 2026 14:28:35.369     5 Jan 2026 15:29:44.449          3669.079
                   5 Jan 2026 16:04:58.006     5 Jan 2026 17:06:06.348          3668.341
                   5 Jan 2026 17:41:20.465     5 Jan 2026 18:42:28.250          3667.785
                   5 Jan 2026 19:17:42.941     5 Jan 2026 20:18:50.148          3667.207
                   5 Jan 2026 20:54:05.427     5 Jan 2026 21:55:12.058          3666.631
                   5 Jan 2026 22:30:27.836     5 Jan 2026 23:31:34.057          3666.221
                   6 Jan 2026 00:06:50.364     6 Jan 2026 01:07:55.899          3665.536
                   6 Jan 2026 01:43:12.760     6 Jan 2026 02:44:17.652          3664.891
                   6 Jan 2026 03:19:34.994     6 Jan 2026 04:20:39.401          3664.407
                   6 Jan 2026 04:55:57.308     6 Jan 2026 05:57:01.020          3663.712
                   6 Jan 2026 06:32:19.487     6 Jan 2026 07:33:22.662          3663.175
                   6 Jan 2026 08:08:41.614     6 Jan 2026 09:09:44.326          3662.711
                   6 Jan 2026 09:45:03.811     6 Jan 2026 10:46:05.953          3662.142
                   6 Jan 2026 11:21:25.988     6 Jan 2026 12:22:27.619          3661.632
                   6 Jan 2026 12:57:48.169     6 Jan 2026 13:58:49.211          3661.041
                   6 Jan 2026 14:34:10.290     6 Jan 2026 15:35:10.715          3660.425
                   6 Jan 2026 16:10:32.253     6 Jan 2026 17:11:32.203          3659.950
                   6 Jan 2026 17:46:54.255     6 Jan 2026 18:47:53.590          3659.334
                   6 Jan 2026 19:23:16.174     6 Jan 2026 20:24:15.015          3658.841
                   6 Jan 2026 20:59:38.031     6 Jan 2026 22:00:36.545          3658.514
                   6 Jan 2026 22:36:00.032     6 Jan 2026 23:36:57.977          3657.945
                   7 Jan 2026 00:12:21.918     7 Jan 2026 01:13:19.346          3657.428
                   7 Jan 2026 01:48:43.708     7 Jan 2026 02:49:40.667          3656.959
                   7 Jan 2026 03:25:05.492     7 Jan 2026 04:26:01.851          3656.359
                   7 Jan 2026 05:01:27.134     7 Jan 2026 06:02:23.080          3655.946
                   7 Jan 2026 06:37:48.804     7 Jan 2026 07:38:44.248          3655.444
                   7 Jan 2026 08:14:10.417     7 Jan 2026 09:15:05.416          3654.999
                   7 Jan 2026 09:50:31.984     7 Jan 2026 10:51:26.678          3654.694
                   7 Jan 2026 11:26:53.704     7 Jan 2026 12:27:47.826          3654.121
                   7 Jan 2026 13:03:15.290     7 Jan 2026 14:04:08.946          3653.657
                   7 Jan 2026 14:39:36.762     7 Jan 2026 15:40:30.060          3653.299
                   7 Jan 2026 16:15:58.286     7 Jan 2026 17:16:51.006          3652.719
                   7 Jan 2026 17:52:19.646     7 Jan 2026 18:53:11.992          3652.347
                   7 Jan 2026 19:28:40.992     7 Jan 2026 20:29:33.048          3652.057
                   7 Jan 2026 21:05:02.414     7 Jan 2026 22:05:54.059          3651.645
                   7 Jan 2026 22:41:23.744     7 Jan 2026 23:42:15.096          3651.352
                   8 Jan 2026 00:17:45.097     8 Jan 2026 01:18:36.007          3650.909
                   8 Jan 2026 01:54:06.358     8 Jan 2026 02:54:56.828          3650.470
                   8 Jan 2026 03:30:27.468     8 Jan 2026 04:31:17.661          3650.193
                   8 Jan 2026 05:06:48.651     8 Jan 2026 06:07:38.418          3649.767
                   8 Jan 2026 06:43:09.745     8 Jan 2026 07:43:59.157          3649.412
                   8 Jan 2026 08:19:30.726     8 Jan 2026 09:20:20.016          3649.290
                   8 Jan 2026 09:55:51.914     8 Jan 2026 10:56:40.783          3648.869
                   8 Jan 2026 11:32:12.996     8 Jan 2026 12:33:01.540          3648.544
                   8 Jan 2026 13:08:33.996     8 Jan 2026 14:09:22.279          3648.283
                   8 Jan 2026 14:44:55.007     8 Jan 2026 15:45:42.886          3647.879
                   8 Jan 2026 16:21:15.849     8 Jan 2026 17:22:03.496          3647.646
                   8 Jan 2026 17:57:36.707     8 Jan 2026 18:58:24.093          3647.386
                   8 Jan 2026 19:33:57.549     8 Jan 2026 20:34:44.717          3647.168
                   8 Jan 2026 21:10:18.314     8 Jan 2026 22:11:05.421          3647.107
                   8 Jan 2026 22:46:39.202     8 Jan 2026 23:47:25.992          3646.790
                   9 Jan 2026 00:22:59.962     9 Jan 2026 01:23:46.488          3646.526
                   9 Jan 2026 01:59:20.592     9 Jan 2026 03:00:06.992          3646.400
                   9 Jan 2026 03:35:41.280     9 Jan 2026 04:36:27.363          3646.083
                   9 Jan 2026 05:12:01.831     9 Jan 2026 06:12:47.766          3645.935
                   9 Jan 2026 06:48:22.362     9 Jan 2026 07:49:08.180          3645.818
                   9 Jan 2026 08:24:42.911     9 Jan 2026 09:25:28.610          3645.699
                   9 Jan 2026 10:01:03.464     9 Jan 2026 11:01:49.069          3645.606
                   9 Jan 2026 11:37:24.047     9 Jan 2026 12:38:09.442          3645.395
                   9 Jan 2026 13:13:44.526     9 Jan 2026 14:14:29.756          3645.230
                   9 Jan 2026 14:50:04.871     9 Jan 2026 15:50:50.065          3645.194
                   9 Jan 2026 16:26:25.270     9 Jan 2026 17:27:10.264          3644.994
                   9 Jan 2026 18:02:45.552     9 Jan 2026 19:03:30.526          3644.974
                   9 Jan 2026 19:39:05.800     9 Jan 2026 20:39:50.876          3645.076
                   9 Jan 2026 21:15:26.146     9 Jan 2026 22:16:11.130          3644.984
                   9 Jan 2026 22:51:46.387     9 Jan 2026 23:52:31.366          3644.979
                  10 Jan 2026 00:28:06.592    10 Jan 2026 01:28:51.524          3644.932
                  10 Jan 2026 02:04:26.748    10 Jan 2026 03:05:11.605          3644.856
                  10 Jan 2026 03:40:46.782    10 Jan 2026 04:41:31.718          3644.936
                  10 Jan 2026 05:17:06.870    10 Jan 2026 06:17:51.749          3644.879
                  10 Jan 2026 06:53:26.859    10 Jan 2026 07:54:11.826          3644.967
                  10 Jan 2026 08:29:46.816    10 Jan 2026 09:30:32.008          3645.192
                  10 Jan 2026 10:06:06.950    10 Jan 2026 11:06:52.056          3645.105
                  10 Jan 2026 11:42:26.918    10 Jan 2026 12:43:12.112          3645.195
                  10 Jan 2026 13:18:46.826    10 Jan 2026 14:19:32.144          3645.318
                  10 Jan 2026 14:55:06.733    10 Jan 2026 15:55:52.035          3645.302
                  10 Jan 2026 16:31:26.481    10 Jan 2026 17:32:11.981          3645.501
                  10 Jan 2026 18:07:46.263    10 Jan 2026 19:08:31.962          3645.699
                  10 Jan 2026 19:44:06.046    10 Jan 2026 20:44:51.940          3645.894
                  10 Jan 2026 21:20:25.751    10 Jan 2026 22:21:11.956          3646.205
                  10 Jan 2026 22:56:45.543    10 Jan 2026 23:57:31.828          3646.285
                  11 Jan 2026 00:33:05.191    11 Jan 2026 01:33:51.659          3646.468
                  11 Jan 2026 02:09:24.746    11 Jan 2026 03:10:11.516          3646.770
                  11 Jan 2026 03:45:44.360    11 Jan 2026 04:46:31.266          3646.905
                  11 Jan 2026 05:22:03.856    11 Jan 2026 06:22:51.030          3647.175
                  11 Jan 2026 06:58:23.317    11 Jan 2026 07:59:10.907          3647.590
                  11 Jan 2026 08:34:42.894    11 Jan 2026 09:35:30.726          3647.832
                  11 Jan 2026 10:11:02.388    11 Jan 2026 11:11:50.547          3648.159
                  11 Jan 2026 11:47:21.873    11 Jan 2026 12:48:10.317          3648.444
                  11 Jan 2026 13:23:41.285    11 Jan 2026 14:24:30.014          3648.728
                  11 Jan 2026 15:00:00.560    11 Jan 2026 16:00:49.721          3649.161
                  11 Jan 2026 16:36:19.903    11 Jan 2026 17:37:09.379          3649.476
                  11 Jan 2026 18:12:39.151    11 Jan 2026 19:13:29.117          3649.966
                  11 Jan 2026 19:48:58.389    11 Jan 2026 20:49:48.923          3650.534
                  11 Jan 2026 21:25:17.701    11 Jan 2026 22:26:08.585          3650.885
                  11 Jan 2026 23:01:36.882    12 Jan 2026 00:02:28.229          3651.348
                  12 Jan 2026 00:37:56.035    12 Jan 2026 01:38:47.849          3651.814
                  12 Jan 2026 02:14:15.159    12 Jan 2026 03:15:07.390          3652.231
                  12 Jan 2026 03:50:34.159    12 Jan 2026 04:51:26.975          3652.816
                  12 Jan 2026 05:26:53.229    12 Jan 2026 06:27:46.514          3653.285
                  12 Jan 2026 07:03:12.213    12 Jan 2026 08:04:06.158          3653.945
                  12 Jan 2026 08:39:31.252    12 Jan 2026 09:40:25.841          3654.589
                  12 Jan 2026 10:15:50.354    12 Jan 2026 11:16:45.378          3655.023
                  12 Jan 2026 11:52:09.280    12 Jan 2026 12:53:04.931          3655.651
                  12 Jan 2026 13:28:28.178    12 Jan 2026 14:29:24.459          3656.281
                  12 Jan 2026 15:04:47.052    12 Jan 2026 16:05:43.887          3656.835
                  12 Jan 2026 16:41:05.799    12 Jan 2026 17:42:03.421          3657.623
                  12 Jan 2026 18:17:24.615    12 Jan 2026 19:18:22.982          3658.367
                  12 Jan 2026 19:53:43.409    12 Jan 2026 20:54:42.515          3659.107
                  12 Jan 2026 21:30:02.128    12 Jan 2026 22:31:02.055          3659.928
                  12 Jan 2026 23:06:20.915    13 Jan 2026 00:07:21.465          3660.550
                  13 Jan 2026 00:42:39.554    13 Jan 2026 01:43:40.879          3661.325
                  13 Jan 2026 02:18:58.156    13 Jan 2026 03:20:00.339          3662.182
                  13 Jan 2026 03:55:16.785    13 Jan 2026 04:56:19.650          3662.865
                  13 Jan 2026 05:31:35.281    13 Jan 2026 06:32:39.085          3663.804
                  13 Jan 2026 07:07:53.845    13 Jan 2026 08:08:58.612          3664.767
                  13 Jan 2026 08:44:12.484    13 Jan 2026 09:45:18.032          3665.548
                  13 Jan 2026 10:20:30.981    13 Jan 2026 11:21:37.486          3666.505
                  13 Jan 2026 11:56:49.514    13 Jan 2026 12:57:56.861          3667.347
                  13 Jan 2026 13:33:07.930    13 Jan 2026 14:34:16.174          3668.244
                  13 Jan 2026 15:09:26.250    13 Jan 2026 16:10:35.562          3669.312
                  13 Jan 2026 16:45:44.639    13 Jan 2026 17:46:54.916          3670.277
                  13 Jan 2026 18:22:02.932    13 Jan 2026 19:23:14.343          3671.411
                  13 Jan 2026 19:58:21.258    13 Jan 2026 20:59:33.801          3672.544
                  13 Jan 2026 21:34:39.599    13 Jan 2026 22:35:53.100          3673.500
                  13 Jan 2026 23:10:57.794    14 Jan 2026 00:12:12.425          3674.631
                  14 Jan 2026 00:47:16.026    14 Jan 2026 01:48:31.741          3675.715
                  14 Jan 2026 02:23:34.195    14 Jan 2026 03:24:51.004          3676.809
                  14 Jan 2026 03:59:52.271    14 Jan 2026 05:01:10.299          3678.028
                  14 Jan 2026 05:36:10.413    14 Jan 2026 06:37:29.648          3679.235
                  14 Jan 2026 07:12:28.534    14 Jan 2026 08:13:49.037          3680.503
                  14 Jan 2026 08:48:46.682    14 Jan 2026 09:50:08.438          3681.756
                  14 Jan 2026 10:25:04.797    14 Jan 2026 11:26:27.716          3682.919
                  14 Jan 2026 12:01:22.783    14 Jan 2026 13:02:47.010          3684.227
                  14 Jan 2026 13:37:40.780    14 Jan 2026 14:39:06.294          3685.514
                  14 Jan 2026 15:13:58.704    14 Jan 2026 16:15:25.542          3686.839
                  14 Jan 2026 16:50:16.550    14 Jan 2026 17:51:44.923          3688.373
                  14 Jan 2026 18:26:34.501    14 Jan 2026 19:28:04.288          3689.787
                  14 Jan 2026 20:02:52.385    14 Jan 2026 21:04:23.608          3691.222
                  14 Jan 2026 21:39:10.224    14 Jan 2026 22:40:42.937          3692.712
                  14 Jan 2026 23:15:28.076    15 Jan 2026 00:17:02.166          3694.090
                  15 Jan 2026 00:51:45.810    15 Jan 2026 01:53:21.429          3695.618
                  15 Jan 2026 02:28:03.553    15 Jan 2026 03:29:40.735          3697.182
                  15 Jan 2026 04:04:21.273    15 Jan 2026 05:05:59.931          3698.658
                  15 Jan 2026 05:40:38.892    15 Jan 2026 06:42:19.345          3700.453
                  15 Jan 2026 07:16:56.702    15 Jan 2026 08:18:38.747          3702.045
                  15 Jan 2026 08:53:14.435    15 Jan 2026 09:54:58.041          3703.606
                  15 Jan 2026 10:29:32.039    15 Jan 2026 11:31:17.401          3705.362
                  15 Jan 2026 12:05:49.699    15 Jan 2026 13:07:36.666          3706.967
                  15 Jan 2026 13:42:07.222    15 Jan 2026 14:43:55.925          3708.702
                  15 Jan 2026 15:18:24.724    15 Jan 2026 16:20:15.315          3710.590
                  15 Jan 2026 16:54:42.256    15 Jan 2026 17:56:34.652          3712.396
                  15 Jan 2026 18:30:59.701    15 Jan 2026 19:32:54.052          3714.351
                  15 Jan 2026 20:07:17.235    15 Jan 2026 21:09:13.453          3716.218
                  15 Jan 2026 21:43:34.694    15 Jan 2026 22:45:32.717          3718.023
                  15 Jan 2026 23:19:52.033    16 Jan 2026 00:21:52.067          3720.034
                  16 Jan 2026 00:56:09.472    16 Jan 2026 01:58:11.400          3721.927
                  16 Jan 2026 02:32:26.783    16 Jan 2026 03:34:30.669          3723.886
                  16 Jan 2026 04:08:44.067    16 Jan 2026 05:10:50.084          3726.017
                  16 Jan 2026 05:45:01.413    16 Jan 2026 06:47:09.539          3728.126
                  16 Jan 2026 07:21:18.758    16 Jan 2026 08:23:28.987          3730.229
                  16 Jan 2026 08:57:36.119    16 Jan 2026 09:59:48.476          3732.357
                  16 Jan 2026 10:33:53.383    16 Jan 2026 11:36:07.816          3734.433
                  16 Jan 2026 12:10:10.533    16 Jan 2026 13:12:27.205          3736.672
                  16 Jan 2026 13:46:27.749    16 Jan 2026 14:48:46.634          3738.885
                  16 Jan 2026 15:22:44.865    16 Jan 2026 16:25:06.058          3741.193
                  16 Jan 2026 16:59:01.961    16 Jan 2026 18:01:25.615          3743.654
                  16 Jan 2026 18:35:19.120    16 Jan 2026 19:37:45.112          3745.993
                  16 Jan 2026 20:11:36.198    16 Jan 2026 21:14:04.567          3748.369
                  16 Jan 2026 21:47:53.273    16 Jan 2026 22:50:24.083          3750.810
                  16 Jan 2026 23:24:10.315    17 Jan 2026 00:26:43.513          3753.198
                  17 Jan 2026 01:00:27.263    17 Jan 2026 02:03:03.014          3755.750
                  17 Jan 2026 02:36:44.280    17 Jan 2026 03:39:22.524          3758.243
                  17 Jan 2026 04:13:01.197    17 Jan 2026 05:15:42.062          3760.865
                  17 Jan 2026 05:49:18.139    17 Jan 2026 06:52:01.760          3763.621
                  17 Jan 2026 07:25:35.208    17 Jan 2026 08:28:21.398          3766.190
                  17 Jan 2026 09:01:52.119    17 Jan 2026 10:04:40.985          3768.867
                  17 Jan 2026 10:38:09.011    17 Jan 2026 11:41:00.641          3771.630
                  17 Jan 2026 12:14:25.875    17 Jan 2026 13:17:20.200          3774.325
                  17 Jan 2026 13:50:42.615    17 Jan 2026 14:53:39.837          3777.222
                  17 Jan 2026 15:26:59.446    17 Jan 2026 16:29:59.646          3780.200
                  17 Jan 2026 17:03:16.212    17 Jan 2026 18:06:19.328          3783.115
                  17 Jan 2026 18:39:32.939    17 Jan 2026 19:42:39.092          3786.153
                  17 Jan 2026 20:15:49.756    17 Jan 2026 21:18:58.856          3789.099
                  17 Jan 2026 21:52:06.432    17 Jan 2026 22:55:18.527          3792.095
                  17 Jan 2026 23:28:23.108    18 Jan 2026 00:31:38.340          3795.232
                  18 Jan 2026 01:04:39.795    18 Jan 2026 02:07:58.123          3798.328
                  18 Jan 2026 02:40:56.369    18 Jan 2026 03:44:17.875          3801.506
                  18 Jan 2026 04:17:13.010    18 Jan 2026 05:20:37.914          3804.904
                  18 Jan 2026 05:53:29.701    18 Jan 2026 06:56:57.855          3808.154
                  18 Jan 2026 07:29:46.327    18 Jan 2026 08:33:17.800          3811.472
                  18 Jan 2026 09:06:02.983    18 Jan 2026 10:09:37.835          3814.852
                  18 Jan 2026 10:42:19.507    18 Jan 2026 11:45:57.710          3818.203
                  18 Jan 2026 12:18:36.013    18 Jan 2026 13:22:17.704          3821.691
                  18 Jan 2026 13:54:52.524    18 Jan 2026 14:58:37.790          3825.266
                  18 Jan 2026 15:31:08.956    18 Jan 2026 16:34:57.878          3828.923
                  18 Jan 2026 17:07:25.447    18 Jan 2026 18:11:18.084          3832.637
                  18 Jan 2026 18:43:41.921    18 Jan 2026 19:47:38.217          3836.297
                  18 Jan 2026 20:19:58.304    18 Jan 2026 21:23:58.329          3840.025
                  18 Jan 2026 21:56:14.766    18 Jan 2026 23:00:18.594          3843.828
                  18 Jan 2026 23:32:31.132    19 Jan 2026 00:36:38.760          3847.628
                  19 Jan 2026 01:08:47.462    19 Jan 2026 02:12:58.999          3851.537
                  19 Jan 2026 02:45:03.823    19 Jan 2026 03:49:19.360          3855.536
                  19 Jan 2026 04:21:20.112    19 Jan 2026 05:25:39.788          3859.675
                  19 Jan 2026 05:57:36.571    19 Jan 2026 07:02:00.310          3863.739
                  19 Jan 2026 07:33:52.965    19 Jan 2026 08:38:20.794          3867.829
                  19 Jan 2026 09:10:09.206    19 Jan 2026 10:14:41.228          3872.022
                  19 Jan 2026 10:46:25.529    19 Jan 2026 11:51:01.783          3876.254
                  19 Jan 2026 12:22:41.740    19 Jan 2026 13:27:22.293          3880.553
                  19 Jan 2026 13:58:57.928    19 Jan 2026 15:03:42.919          3884.991
                  19 Jan 2026 15:35:14.181    19 Jan 2026 16:40:03.739          3889.558
                  19 Jan 2026 17:11:30.324    19 Jan 2026 18:16:24.380          3894.055
                  19 Jan 2026 18:47:46.549    19 Jan 2026 19:52:45.145          3898.596
                  19 Jan 2026 20:24:02.728    19 Jan 2026 21:29:05.958          3903.229
                  19 Jan 2026 22:00:18.800    19 Jan 2026 23:05:26.723          3907.923
                  19 Jan 2026 23:36:34.996    20 Jan 2026 00:41:47.669          3912.673
                  20 Jan 2026 01:12:51.070    20 Jan 2026 02:18:08.565          3917.495
                  20 Jan 2026 02:49:07.105    20 Jan 2026 03:54:29.566          3922.461
                  20 Jan 2026 04:25:23.272    20 Jan 2026 05:30:50.843          3927.571
                  20 Jan 2026 06:01:39.417    20 Jan 2026 07:07:11.975          3932.559
                  20 Jan 2026 07:37:55.549    20 Jan 2026 08:43:33.168          3937.619
                  20 Jan 2026 09:14:11.627    20 Jan 2026 10:19:54.488          3942.861
                  20 Jan 2026 10:50:27.585    20 Jan 2026 11:56:15.633          3948.048
                  20 Jan 2026 12:26:43.637    20 Jan 2026 13:32:37.007          3953.370
                  20 Jan 2026 14:02:59.625    20 Jan 2026 15:08:58.519          3958.895
                  20 Jan 2026 15:39:15.561    20 Jan 2026 16:45:19.962          3964.401
                  20 Jan 2026 17:15:31.582    20 Jan 2026 18:21:41.569          3969.988
                  20 Jan 2026 18:51:47.528    20 Jan 2026 19:58:03.146          3975.618
                  20 Jan 2026 20:28:03.471    20 Jan 2026 21:34:24.718          3981.247
                  20 Jan 2026 22:04:19.429    20 Jan 2026 23:10:46.550          3987.121
                  20 Jan 2026 23:40:35.286    21 Jan 2026 00:47:08.292          3993.006
                  21 Jan 2026 01:16:51.229    21 Jan 2026 02:23:30.101          3998.872
                  21 Jan 2026 02:53:07.105    21 Jan 2026 03:59:52.272          4005.167
                  21 Jan 2026 04:29:23.038    21 Jan 2026 05:36:14.308          4011.271
                  21 Jan 2026 06:05:39.085    21 Jan 2026 07:12:36.475          4017.390
                  21 Jan 2026 07:41:54.953    21 Jan 2026 08:48:58.733          4023.779
                  21 Jan 2026 09:18:10.828    21 Jan 2026 10:25:20.874          4030.046
                  21 Jan 2026 10:54:26.709    21 Jan 2026 12:01:43.235          4036.526
                  21 Jan 2026 12:30:42.482    21 Jan 2026 13:38:05.663          4043.181
                  21 Jan 2026 14:06:58.385    21 Jan 2026 15:14:28.157          4049.772
                  21 Jan 2026 15:43:14.203    21 Jan 2026 16:50:50.871          4056.668
                  21 Jan 2026 17:19:29.979    21 Jan 2026 18:27:13.461          4063.482
                  21 Jan 2026 18:55:45.883    21 Jan 2026 20:03:36.148          4070.265
                  21 Jan 2026 20:32:01.643    21 Jan 2026 21:39:59.087          4077.445
                  21 Jan 2026 22:08:17.459    21 Jan 2026 23:16:21.899          4084.440
                  21 Jan 2026 23:44:33.275    22 Jan 2026 00:52:44.927          4091.653
                  22 Jan 2026 01:20:48.980    22 Jan 2026 02:29:08.098          4099.118
                  22 Jan 2026 02:57:04.841    22 Jan 2026 04:05:31.359          4106.518
                  22 Jan 2026 04:33:20.756    22 Jan 2026 05:41:54.842          4114.086
                  22 Jan 2026 06:09:36.591    22 Jan 2026 07:18:18.293          4121.703
                  22 Jan 2026 07:45:52.471    22 Jan 2026 08:54:41.719          4129.248
                  22 Jan 2026 09:22:08.225    22 Jan 2026 10:31:05.399          4137.174
                  22 Jan 2026 10:58:24.006    22 Jan 2026 12:07:29.023          4145.016
                  22 Jan 2026 12:34:39.840    22 Jan 2026 13:43:52.814          4152.974
                  22 Jan 2026 14:10:55.581    22 Jan 2026 15:20:16.918          4161.337
                  22 Jan 2026 15:47:11.394    22 Jan 2026 16:56:40.814          4169.420
                  22 Jan 2026 17:23:27.208    22 Jan 2026 18:33:04.923          4177.715
                  22 Jan 2026 18:59:42.941    22 Jan 2026 20:09:29.219          4186.278
                  22 Jan 2026 20:35:58.815    22 Jan 2026 21:45:53.420          4194.604
                  22 Jan 2026 22:12:14.604    22 Jan 2026 23:22:17.962          4203.358
                  22 Jan 2026 23:48:30.370    23 Jan 2026 00:58:42.547          4212.177
                  23 Jan 2026 01:24:46.197    23 Jan 2026 02:35:07.166          4220.969
                  23 Jan 2026 03:01:02.009    23 Jan 2026 04:11:32.234          4230.225
                  23 Jan 2026 04:37:18.033    23 Jan 2026 05:47:57.219          4239.185
                  23 Jan 2026 06:13:33.970    23 Jan 2026 07:24:22.231          4248.261
                  23 Jan 2026 07:49:49.763    23 Jan 2026 09:00:47.511          4257.748
                  23 Jan 2026 09:26:05.706    23 Jan 2026 10:37:12.661          4266.955
                  23 Jan 2026 11:02:21.570    23 Jan 2026 12:13:38.027          4276.457
                  23 Jan 2026 12:38:37.470    23 Jan 2026 13:50:03.729          4286.260
                  23 Jan 2026 14:14:53.442    23 Jan 2026 15:26:29.244          4295.801
                  23 Jan 2026 15:51:09.257    23 Jan 2026 17:02:55.021          4305.765
                  23 Jan 2026 17:27:25.261    23 Jan 2026 18:39:20.984          4315.723
                  23 Jan 2026 19:03:41.219    23 Jan 2026 20:15:46.805          4325.586
                  23 Jan 2026 20:39:57.117    23 Jan 2026 21:52:13.052          4335.935
                  23 Jan 2026 22:16:13.237    23 Jan 2026 23:28:39.406          4346.170
                  23 Jan 2026 23:52:29.193    24 Jan 2026 01:05:05.676          4356.483
                  24 Jan 2026 01:28:45.206    24 Jan 2026 02:41:32.430          4367.224
                  24 Jan 2026 03:05:01.441    24 Jan 2026 04:17:59.202          4377.761
                  24 Jan 2026 04:41:17.629    24 Jan 2026 05:54:25.991          4388.363
                  24 Jan 2026 06:17:33.859    24 Jan 2026 07:30:53.093          4399.234
                  24 Jan 2026 07:53:50.059    24 Jan 2026 09:07:20.010          4409.951
                  24 Jan 2026 09:30:06.179    24 Jan 2026 10:43:47.125          4420.946
                  24 Jan 2026 11:06:22.550    24 Jan 2026 12:20:14.591          4432.041
                  24 Jan 2026 12:42:38.876    24 Jan 2026 13:56:41.851          4442.974
                  24 Jan 2026 14:18:55.145    24 Jan 2026 15:33:09.439          4454.295
                  24 Jan 2026 15:55:11.560    24 Jan 2026 17:09:37.228          4465.668
                  24 Jan 2026 17:31:27.937    24 Jan 2026 18:46:04.791          4476.855
                  24 Jan 2026 19:07:44.414    24 Jan 2026 20:22:32.751          4488.337
                  24 Jan 2026 20:44:00.994    24 Jan 2026 21:59:00.933          4499.939
                  24 Jan 2026 22:20:17.456    24 Jan 2026 23:35:28.982          4511.527
                  24 Jan 2026 23:56:34.150    25 Jan 2026 01:11:57.388          4523.238
                  25 Jan 2026 01:32:50.876    25 Jan 2026 02:48:25.918          4535.042
                  25 Jan 2026 03:09:07.738    25 Jan 2026 04:24:54.432          4546.694
                  25 Jan 2026 04:45:24.809    25 Jan 2026 06:01:23.255          4558.446
                  25 Jan 2026 06:21:41.684    25 Jan 2026 07:37:51.902          4570.217
                  25 Jan 2026 07:57:58.673    25 Jan 2026 09:14:20.631          4581.958
                  25 Jan 2026 09:34:15.825    25 Jan 2026 10:50:49.659          4593.833
                  25 Jan 2026 11:10:32.939    25 Jan 2026 12:27:18.454          4605.515
                  25 Jan 2026 12:46:50.354    25 Jan 2026 14:03:47.538          4617.184
                  25 Jan 2026 14:23:07.636    25 Jan 2026 15:40:16.889          4629.253
                  25 Jan 2026 15:59:24.973    25 Jan 2026 17:16:45.865          4640.893
                  25 Jan 2026 17:35:42.640    25 Jan 2026 18:53:15.137          4652.497
                  25 Jan 2026 19:12:00.236    25 Jan 2026 20:29:44.657          4664.421
                  25 Jan 2026 20:48:18.047    25 Jan 2026 22:06:13.967          4675.921
                  25 Jan 2026 22:24:35.965    25 Jan 2026 23:42:43.530          4687.566
                  26 Jan 2026 00:00:53.836    26 Jan 2026 01:19:13.167          4699.331
                  26 Jan 2026 01:37:12.154    26 Jan 2026 02:55:42.639          4710.485
                  26 Jan 2026 03:13:30.689    26 Jan 2026 04:32:12.371          4721.682
                  26 Jan 2026 04:49:49.142    26 Jan 2026 06:08:42.002          4732.860
                  26 Jan 2026 06:26:07.888    26 Jan 2026 07:45:11.403          4743.515
                  26 Jan 2026 08:02:26.605    26 Jan 2026 09:21:41.055          4754.451
                  26 Jan 2026 09:38:45.538    26 Jan 2026 10:58:10.385          4764.847
                  26 Jan 2026 11:15:04.853    26 Jan 2026 12:34:39.690          4774.837
                  26 Jan 2026 12:51:24.096    26 Jan 2026 14:11:09.346          4785.249
                  26 Jan 2026 14:27:43.483    26 Jan 2026 15:47:38.547          4795.063
                  26 Jan 2026 16:04:03.203    26 Jan 2026 17:24:07.768          4804.566
                  26 Jan 2026 17:40:22.915    26 Jan 2026 19:00:37.104          4814.189
                  26 Jan 2026 19:16:43.147    26 Jan 2026 20:37:06.041          4822.894
                  26 Jan 2026 20:53:03.503    26 Jan 2026 22:13:35.218          4831.715
                  26 Jan 2026 22:29:23.843    26 Jan 2026 23:50:04.289          4840.446
                  27 Jan 2026 00:05:44.744    27 Jan 2026 01:26:32.832          4848.088
                  27 Jan 2026 01:42:05.849    27 Jan 2026 03:03:01.554          4855.705
                  27 Jan 2026 03:18:27.291    27 Jan 2026 04:39:30.136          4862.845
                  27 Jan 2026 04:54:49.025    27 Jan 2026 06:15:58.199          4869.174
                  27 Jan 2026 06:31:10.696    27 Jan 2026 07:52:26.286          4875.591
                  27 Jan 2026 08:07:32.796    27 Jan 2026 09:28:54.034          4881.238
                  27 Jan 2026 09:43:55.285    27 Jan 2026 11:05:21.285          4886.001
                  27 Jan 2026 11:20:17.852    27 Jan 2026 12:41:48.725          4890.873
                  27 Jan 2026 12:56:40.865    27 Jan 2026 14:18:15.851          4894.987
                  27 Jan 2026 14:33:03.900    27 Jan 2026 15:54:42.572          4898.673
                  27 Jan 2026 16:09:27.189    27 Jan 2026 17:31:09.312          4902.123
                  27 Jan 2026 17:45:51.039    27 Jan 2026 19:07:35.403          4904.363
                  27 Jan 2026 19:22:15.079    27 Jan 2026 20:44:01.480          4906.401
                  27 Jan 2026 20:58:39.355    27 Jan 2026 22:20:27.537          4908.182
                  27 Jan 2026 22:35:04.052    27 Jan 2026 23:56:52.709          4908.658
                  28 Jan 2026 00:11:28.897    28 Jan 2026 01:33:17.901          4909.004
                  28 Jan 2026 01:47:54.284    28 Jan 2026 03:09:42.885          4908.601
                  28 Jan 2026 03:24:20.051    28 Jan 2026 04:46:07.213          4907.162
                  28 Jan 2026 05:00:45.672    28 Jan 2026 06:22:31.506          4905.834
                  28 Jan 2026 06:37:11.735    28 Jan 2026 07:58:55.321          4903.586
                  28 Jan 2026 08:13:38.087    28 Jan 2026 09:35:18.522          4900.435
                  28 Jan 2026 09:50:04.471    28 Jan 2026 11:11:41.656          4897.185
                  28 Jan 2026 11:26:31.494    28 Jan 2026 12:48:04.534          4893.040
                  28 Jan 2026 13:02:58.384    28 Jan 2026 14:24:27.095          4888.712
                  28 Jan 2026 14:39:25.266    28 Jan 2026 16:00:49.477          4884.211
                  28 Jan 2026 16:15:52.799    28 Jan 2026 17:37:11.253          4878.454
                  28 Jan 2026 17:52:20.294    28 Jan 2026 19:13:32.844          4872.550
                  28 Jan 2026 19:28:47.993    28 Jan 2026 20:49:54.511          4866.518
                  28 Jan 2026 21:05:16.094    28 Jan 2026 22:26:15.436          4859.342
                  28 Jan 2026 22:41:44.055    29 Jan 2026 00:02:36.204          4852.149
                  29 Jan 2026 00:18:12.321    29 Jan 2026 01:38:56.742          4844.421
                  29 Jan 2026 01:54:41.026    29 Jan 2026 03:15:16.822          4835.796
                  29 Jan 2026 03:31:09.497    29 Jan 2026 04:51:36.939          4827.441
                  29 Jan 2026 05:07:38.106    29 Jan 2026 06:27:56.588          4818.482
                  29 Jan 2026 06:44:06.801    29 Jan 2026 08:04:15.864          4809.063
                  29 Jan 2026 08:20:35.361    29 Jan 2026 09:40:34.975          4799.614
                  29 Jan 2026 09:57:04.283    29 Jan 2026 11:16:53.643          4789.360
                  29 Jan 2026 11:33:33.156    29 Jan 2026 12:53:12.509          4779.354
                  29 Jan 2026 13:10:01.649    29 Jan 2026 14:29:31.127          4769.478
                  29 Jan 2026 14:46:30.588    29 Jan 2026 16:05:49.252          4758.664
                  29 Jan 2026 16:22:59.392    29 Jan 2026 17:42:07.341          4747.948
                  29 Jan 2026 17:59:27.992    29 Jan 2026 19:18:25.194          4737.202
                  29 Jan 2026 19:35:57.035    29 Jan 2026 20:54:42.961          4725.925
                  29 Jan 2026 21:12:25.841    29 Jan 2026 22:31:00.568          4714.727
                  29 Jan 2026 22:48:54.442    30 Jan 2026 00:07:17.771          4703.329
                  30 Jan 2026 00:25:23.394    30 Jan 2026 01:43:34.903          4691.508
                  30 Jan 2026 02:01:52.126    30 Jan 2026 03:19:51.989          4679.863
                  30 Jan 2026 03:38:20.716    30 Jan 2026 04:56:08.705          4667.990
                  30 Jan 2026 05:14:49.359    30 Jan 2026 06:32:25.380          4656.021
                  30 Jan 2026 06:51:17.594    30 Jan 2026 08:08:41.780          4644.185
                  30 Jan 2026 08:27:45.923    30 Jan 2026 09:44:57.859          4631.936
                  30 Jan 2026 10:04:14.215    30 Jan 2026 11:21:14.114          4619.900
                  30 Jan 2026 11:40:42.104    30 Jan 2026 12:57:30.274          4608.170
                  30 Jan 2026 13:17:10.109    30 Jan 2026 14:33:46.203          4596.094
                  30 Jan 2026 14:53:37.953    30 Jan 2026 16:10:02.159          4584.206
                  30 Jan 2026 16:30:05.411    30 Jan 2026 17:46:17.666          4572.255
                  30 Jan 2026 18:06:33.136    30 Jan 2026 19:22:33.319          4560.184
                  30 Jan 2026 19:43:00.667    30 Jan 2026 20:58:48.950          4548.283
                  30 Jan 2026 21:19:27.889    30 Jan 2026 22:35:04.201          4536.311
                  30 Jan 2026 22:55:55.217    31 Jan 2026 00:11:19.549          4524.332
                  31 Jan 2026 00:32:22.313    31 Jan 2026 01:47:34.679          4512.366
                  31 Jan 2026 02:08:49.220    31 Jan 2026 03:23:49.743          4500.523
                  31 Jan 2026 03:45:16.133    31 Jan 2026 05:00:04.860          4488.727
                  31 Jan 2026 05:21:42.637    31 Jan 2026 06:36:19.568          4476.932
                  31 Jan 2026 06:58:09.000    31 Jan 2026 08:12:34.232          4465.232
                  31 Jan 2026 08:34:35.322    31 Jan 2026 09:48:48.813          4453.492
                  31 Jan 2026 10:11:01.234    31 Jan 2026 11:25:03.394          4442.160
                  31 Jan 2026 11:47:27.224    31 Jan 2026 13:01:18.097          4430.873
                  31 Jan 2026 13:23:53.032    31 Jan 2026 14:37:32.507          4419.475
                  31 Jan 2026 15:00:18.413    31 Jan 2026 16:13:46.871          4408.458
                  31 Jan 2026 16:36:43.925    31 Jan 2026 17:50:01.233          4397.309
                  31 Jan 2026 18:13:09.174    31 Jan 2026 19:26:15.440          4386.266
                  31 Jan 2026 19:49:34.207    31 Jan 2026 21:02:29.703          4375.496
                  31 Jan 2026 21:25:59.348    31 Jan 2026 22:38:43.787          4364.439
                  31 Jan 2026 23:02:24.066     1 Feb 2026 00:14:57.791          4353.725
                   1 Feb 2026 00:38:48.707     1 Feb 2026 01:51:11.844          4343.137
                   1 Feb 2026 02:15:13.343     1 Feb 2026 03:27:25.763          4332.420
                   1 Feb 2026 03:51:37.557     1 Feb 2026 05:03:39.629          4322.073
                   1 Feb 2026 05:28:01.679     1 Feb 2026 06:39:53.440          4311.761
                   1 Feb 2026 07:04:25.662     1 Feb 2026 08:16:06.934          4301.272
                   1 Feb 2026 08:40:49.229     1 Feb 2026 09:52:20.544          4291.316
                   1 Feb 2026 10:17:12.880     1 Feb 2026 11:28:34.295          4281.415
                   1 Feb 2026 11:53:36.416     1 Feb 2026 13:04:47.874          4271.459
                   1 Feb 2026 13:29:59.533     1 Feb 2026 14:41:01.463          4261.930
                   1 Feb 2026 15:06:22.777     1 Feb 2026 16:17:14.867          4252.090
                   1 Feb 2026 16:42:45.661     1 Feb 2026 17:53:28.266          4242.605
                   1 Feb 2026 18:19:08.363     1 Feb 2026 19:29:41.829          4233.467
                   1 Feb 2026 19:55:31.239     1 Feb 2026 21:05:55.101          4223.862
                   1 Feb 2026 21:31:53.672     1 Feb 2026 22:42:08.401          4214.729
                   1 Feb 2026 23:08:16.002     2 Feb 2026 00:18:21.687          4205.685
                   2 Feb 2026 00:44:38.361     2 Feb 2026 01:54:34.856          4196.495
                   2 Feb 2026 02:21:00.323     2 Feb 2026 03:30:48.129          4187.807
                   2 Feb 2026 03:57:22.306     2 Feb 2026 05:07:01.202          4178.896
                   2 Feb 2026 05:33:44.072     2 Feb 2026 06:43:14.184          4170.112
                   2 Feb 2026 07:10:05.456     2 Feb 2026 08:19:27.141          4161.684
                   2 Feb 2026 08:46:26.929     2 Feb 2026 09:55:40.023          4153.093
                   2 Feb 2026 10:22:48.187     2 Feb 2026 11:31:53.140          4144.953
                   2 Feb 2026 11:59:09.333     2 Feb 2026 13:08:06.087          4136.753
                   2 Feb 2026 13:35:30.451     2 Feb 2026 14:44:18.940          4128.489
                   2 Feb 2026 15:11:51.215     2 Feb 2026 16:20:31.815          4120.600
                   2 Feb 2026 16:48:11.861     2 Feb 2026 17:56:44.574          4112.712
                   2 Feb 2026 18:24:32.525     2 Feb 2026 19:32:57.457          4104.932
                   2 Feb 2026 20:00:52.963     2 Feb 2026 21:09:10.229          4097.266
                   2 Feb 2026 21:37:13.310     2 Feb 2026 22:45:22.899          4089.589
                   2 Feb 2026 23:13:33.552     3 Feb 2026 00:21:35.641          4082.089
                   3 Feb 2026 00:49:53.546     3 Feb 2026 01:57:48.286          4074.740
                   3 Feb 2026 02:26:13.604     3 Feb 2026 03:34:00.911          4067.307
                   3 Feb 2026 04:02:33.392     3 Feb 2026 05:10:13.529          4060.137
                   3 Feb 2026 05:38:52.964     3 Feb 2026 06:46:25.901          4052.937
                   3 Feb 2026 07:15:12.497     3 Feb 2026 08:22:38.303          4045.806
                   3 Feb 2026 08:51:31.736     3 Feb 2026 09:58:50.831          4039.095
                   3 Feb 2026 10:27:51.076     3 Feb 2026 11:35:03.342          4032.266
                   3 Feb 2026 12:04:10.371     3 Feb 2026 13:11:15.811          4025.440
                   3 Feb 2026 13:40:29.296     3 Feb 2026 14:47:28.186          4018.890
                   3 Feb 2026 15:16:48.270     3 Feb 2026 16:23:40.491          4012.222
                   3 Feb 2026 16:53:07.002     3 Feb 2026 17:59:52.937          4005.934
                   3 Feb 2026 18:29:25.641     3 Feb 2026 19:36:05.242          3999.600
                   3 Feb 2026 20:05:44.377     3 Feb 2026 21:12:17.507          3993.130
                   3 Feb 2026 21:42:02.725     3 Feb 2026 22:48:29.822          3987.097
                   3 Feb 2026 23:18:21.128     4 Feb 2026 00:24:42.038          3980.910
                   4 Feb 2026 00:54:39.475     4 Feb 2026 02:00:54.318          3974.843
                   4 Feb 2026 02:30:57.533     4 Feb 2026 03:37:06.481          3968.948
                   4 Feb 2026 04:07:15.625     4 Feb 2026 05:13:18.562          3962.937
                   4 Feb 2026 05:43:33.491     4 Feb 2026 06:49:30.618          3957.127
                   4 Feb 2026 07:19:51.089     4 Feb 2026 08:25:42.568          3951.479
                   4 Feb 2026 08:56:08.827     4 Feb 2026 10:01:54.735          3945.908
                   4 Feb 2026 10:32:26.483     4 Feb 2026 11:38:06.857          3940.374
                   4 Feb 2026 12:08:44.014     4 Feb 2026 13:14:18.842          3934.829
                   4 Feb 2026 13:45:01.470     4 Feb 2026 14:50:30.883          3929.413
                   4 Feb 2026 15:21:18.644     4 Feb 2026 16:26:42.781          3924.137
                   4 Feb 2026 16:57:35.829     4 Feb 2026 18:02:54.805          3918.976
                   4 Feb 2026 18:33:53.021     4 Feb 2026 19:39:06.806          3913.785
                   4 Feb 2026 20:10:09.950     4 Feb 2026 21:15:18.639          3908.689
                   4 Feb 2026 21:46:26.911     4 Feb 2026 22:51:30.604          3903.692
                   4 Feb 2026 23:22:43.778     5 Feb 2026 00:27:42.472          3898.694
                   5 Feb 2026 00:59:00.496     5 Feb 2026 02:03:54.330          3893.834
                   5 Feb 2026 02:35:17.235     5 Feb 2026 03:40:06.222          3888.987
                   5 Feb 2026 04:11:33.728     5 Feb 2026 05:16:17.885          3884.157
                   5 Feb 2026 05:47:50.133     5 Feb 2026 06:52:29.548          3879.414
                   5 Feb 2026 07:24:06.424     5 Feb 2026 08:28:41.282          3874.857
                   5 Feb 2026 09:00:22.607     5 Feb 2026 10:04:53.081          3870.474
                   5 Feb 2026 10:36:39.014     5 Feb 2026 11:41:04.869          3865.855
                   5 Feb 2026 12:12:55.160     5 Feb 2026 13:17:16.536          3861.375
                   5 Feb 2026 13:49:11.133     5 Feb 2026 14:53:28.159          3857.026
                   5 Feb 2026 15:25:27.088     5 Feb 2026 16:29:39.855          3852.767
                   5 Feb 2026 17:01:42.883     5 Feb 2026 18:05:51.514          3848.631
                   5 Feb 2026 18:37:58.762     5 Feb 2026 19:42:03.143          3844.381
                   5 Feb 2026 20:14:14.475     5 Feb 2026 21:18:14.759          3840.284
                   5 Feb 2026 21:50:30.026     5 Feb 2026 22:54:26.342          3836.315
                   5 Feb 2026 23:26:45.710     6 Feb 2026 00:30:37.956          3832.246
                   6 Feb 2026 01:03:01.192     6 Feb 2026 02:06:49.487          3828.295
                   6 Feb 2026 02:39:16.571     6 Feb 2026 03:43:00.979          3824.409
                   6 Feb 2026 04:15:31.943     6 Feb 2026 05:19:12.427          3820.484
                   6 Feb 2026 05:51:47.054     6 Feb 2026 06:55:23.746          3816.692
                   6 Feb 2026 07:28:02.142     6 Feb 2026 08:31:35.236          3813.094
                   6 Feb 2026 09:04:17.311     6 Feb 2026 10:07:46.779          3809.468
                   6 Feb 2026 10:40:32.406     6 Feb 2026 11:43:58.193          3805.787
                   6 Feb 2026 12:16:47.456     6 Feb 2026 13:20:09.650          3802.193
                   6 Feb 2026 13:53:02.324     6 Feb 2026 14:56:20.936          3798.612
                   6 Feb 2026 15:29:17.026     6 Feb 2026 16:32:32.334          3795.308
                   6 Feb 2026 17:05:31.845     6 Feb 2026 18:08:43.777          3791.932
                   6 Feb 2026 18:41:46.552     6 Feb 2026 19:44:55.040          3788.488
                   6 Feb 2026 20:18:01.119     6 Feb 2026 21:21:06.439          3785.319
                   6 Feb 2026 21:54:15.743     6 Feb 2026 22:57:17.750          3782.007
                   6 Feb 2026 23:30:30.208     7 Feb 2026 00:33:29.034          3778.826
                   7 Feb 2026 01:06:44.703     7 Feb 2026 02:09:40.370          3775.667
                   7 Feb 2026 02:42:59.075     7 Feb 2026 03:45:51.514          3772.439
                   7 Feb 2026 04:19:13.268     7 Feb 2026 05:22:02.658          3769.390
                   7 Feb 2026 05:55:27.446     7 Feb 2026 06:58:13.789          3766.343
                   7 Feb 2026 07:31:41.501     7 Feb 2026 08:34:25.004          3763.503
                   7 Feb 2026 09:07:55.703     7 Feb 2026 10:10:36.318          3760.615
                   7 Feb 2026 10:44:09.885     7 Feb 2026 11:46:47.439          3757.554
                   7 Feb 2026 12:20:23.809     7 Feb 2026 13:22:58.568          3754.759
                   7 Feb 2026 13:56:37.764     7 Feb 2026 14:59:09.696          3751.932
                   7 Feb 2026 15:32:51.555     7 Feb 2026 16:35:20.811          3749.257
                   7 Feb 2026 17:09:05.353     7 Feb 2026 18:11:31.981          3746.628
                   7 Feb 2026 18:45:19.186     7 Feb 2026 19:47:43.029          3743.843
                   7 Feb 2026 20:21:32.776     7 Feb 2026 21:23:54.131          3741.356
                   7 Feb 2026 21:57:46.488     7 Feb 2026 23:00:05.271          3738.783
                   7 Feb 2026 23:34:00.123     8 Feb 2026 00:36:16.279          3736.156
                   8 Feb 2026 01:10:13.605     8 Feb 2026 02:12:27.322          3733.717
                   8 Feb 2026 02:46:27.149     8 Feb 2026 03:48:38.290          3731.141
                   8 Feb 2026 04:22:40.474     8 Feb 2026 05:24:49.134          3728.660
                   8 Feb 2026 05:58:53.700     8 Feb 2026 07:01:00.103          3726.403
                   8 Feb 2026 07:35:07.023     8 Feb 2026 08:37:11.140          3724.116
                   8 Feb 2026 09:11:20.370     8 Feb 2026 10:13:22.134          3721.764
                   8 Feb 2026 10:47:33.681     8 Feb 2026 11:49:33.113          3719.432
                   8 Feb 2026 12:23:46.848     8 Feb 2026 13:25:43.956          3717.108
                   8 Feb 2026 13:59:59.835     8 Feb 2026 15:01:54.864          3715.028
                   8 Feb 2026 15:36:12.913     8 Feb 2026 16:38:05.836          3712.923
                   8 Feb 2026 17:12:25.949     8 Feb 2026 18:14:16.699          3710.750
                   8 Feb 2026 18:48:38.879     8 Feb 2026 19:50:27.622          3708.744
                   8 Feb 2026 20:24:51.793     8 Feb 2026 21:26:38.491          3706.698
                   8 Feb 2026 22:01:04.664     8 Feb 2026 23:02:49.353          3704.689
                   8 Feb 2026 23:37:17.533     9 Feb 2026 00:39:00.250          3702.717
                   9 Feb 2026 01:13:30.329     9 Feb 2026 02:15:11.021          3700.692
                   9 Feb 2026 02:49:42.980     9 Feb 2026 03:51:21.782          3698.801
                   9 Feb 2026 04:25:55.626     9 Feb 2026 05:27:32.463          3696.838
                   9 Feb 2026 06:02:08.132     9 Feb 2026 07:03:43.223          3695.091
                   9 Feb 2026 07:38:20.723     9 Feb 2026 08:39:54.166          3693.443
                   9 Feb 2026 09:14:33.444     9 Feb 2026 10:16:04.895          3691.451
                   9 Feb 2026 10:50:45.931     9 Feb 2026 11:52:15.648          3689.717
                   9 Feb 2026 12:26:58.416     9 Feb 2026 13:28:26.355          3687.939
                   9 Feb 2026 14:03:10.755     9 Feb 2026 15:04:37.047          3686.292
                   9 Feb 2026 15:39:23.052     9 Feb 2026 16:40:47.879          3684.827
                   9 Feb 2026 17:15:35.478     9 Feb 2026 18:16:58.529          3683.051
                   9 Feb 2026 18:51:47.680     9 Feb 2026 19:53:09.248          3681.568
                   9 Feb 2026 20:27:59.933     9 Feb 2026 21:29:20.015          3680.082
                   9 Feb 2026 22:04:12.197     9 Feb 2026 23:05:30.642          3678.445
                   9 Feb 2026 23:40:24.309    10 Feb 2026 00:41:41.350          3677.040
                  10 Feb 2026 01:16:36.493    10 Feb 2026 02:17:51.959          3675.466
                  10 Feb 2026 02:52:48.513    10 Feb 2026 03:54:02.476          3673.963
                  10 Feb 2026 04:29:00.410    10 Feb 2026 05:30:13.075          3672.665
                  10 Feb 2026 06:05:12.367    10 Feb 2026 07:06:23.674          3671.307
                  10 Feb 2026 07:41:24.351    10 Feb 2026 08:42:34.389          3670.038
                  10 Feb 2026 09:17:36.417    10 Feb 2026 10:18:45.015          3668.598
                  10 Feb 2026 10:53:48.326    10 Feb 2026 11:54:55.543          3667.217
                  10 Feb 2026 12:30:00.088    10 Feb 2026 13:31:06.107          3666.019
                  10 Feb 2026 14:06:11.874    10 Feb 2026 15:07:16.674          3664.801
                  10 Feb 2026 15:42:23.613    10 Feb 2026 16:43:27.268          3663.654
                  10 Feb 2026 17:18:35.357    10 Feb 2026 18:19:37.832          3662.475
                  10 Feb 2026 18:54:47.015    10 Feb 2026 19:55:48.370          3661.355
                  10 Feb 2026 20:30:58.667    10 Feb 2026 21:31:58.948          3660.281
                  10 Feb 2026 22:07:10.346    10 Feb 2026 23:08:09.484          3659.138
                  10 Feb 2026 23:43:21.937    11 Feb 2026 00:44:19.971          3658.034
                  11 Feb 2026 01:19:33.445    11 Feb 2026 02:20:30.461          3657.017
                  11 Feb 2026 02:55:44.931    11 Feb 2026 03:56:40.805          3655.873
                  11 Feb 2026 04:31:56.267    11 Feb 2026 05:32:51.226          3654.959
                  11 Feb 2026 06:08:07.660    11 Feb 2026 07:09:01.819          3654.159
                  11 Feb 2026 07:44:19.204    11 Feb 2026 08:45:12.312          3653.109
                  11 Feb 2026 09:20:30.627    11 Feb 2026 10:21:22.794          3652.167
                  11 Feb 2026 10:56:42.009    11 Feb 2026 11:57:33.201          3651.192
                  11 Feb 2026 12:32:53.268    11 Feb 2026 13:33:43.583          3650.315
                  11 Feb 2026 14:09:04.447    11 Feb 2026 15:09:54.124          3649.677
                  11 Feb 2026 15:45:15.745    11 Feb 2026 16:46:04.511          3648.766
                  11 Feb 2026 17:21:26.921    11 Feb 2026 18:22:14.925          3648.004
                  11 Feb 2026 18:57:38.060    11 Feb 2026 19:58:25.415          3647.354
                  11 Feb 2026 20:33:49.270    11 Feb 2026 21:34:35.805          3646.535
                  11 Feb 2026 22:10:00.353    11 Feb 2026 23:10:46.269          3645.916
                  11 Feb 2026 23:46:11.503    12 Feb 2026 00:46:56.622          3645.119
                  12 Feb 2026 01:22:22.531    12 Feb 2026 02:23:06.926          3644.395
                  12 Feb 2026 02:58:33.451    12 Feb 2026 03:59:17.250          3643.799
                  12 Feb 2026 04:34:44.373    12 Feb 2026 05:35:27.552          3643.178
                  12 Feb 2026 06:10:55.293    12 Feb 2026 07:11:38.068          3642.775
                  12 Feb 2026 07:47:06.402    12 Feb 2026 08:47:48.469          3642.068
                  12 Feb 2026 09:23:17.375    12 Feb 2026 10:23:58.786          3641.411
                  12 Feb 2026 10:59:28.205    12 Feb 2026 12:00:09.152          3640.947
                  12 Feb 2026 12:35:39.044    12 Feb 2026 13:36:19.423          3640.379
                  12 Feb 2026 14:11:49.788    12 Feb 2026 15:12:29.838          3640.050
                  12 Feb 2026 15:48:00.617    12 Feb 2026 16:48:40.187          3639.570
                  12 Feb 2026 17:24:11.372    12 Feb 2026 18:24:50.489          3639.117
                  12 Feb 2026 19:00:22.053    12 Feb 2026 20:01:00.913          3638.859
                  12 Feb 2026 20:36:32.849    12 Feb 2026 21:37:11.216          3638.366
                  12 Feb 2026 22:12:43.542    12 Feb 2026 23:13:21.545          3638.003
                  12 Feb 2026 23:48:54.191    13 Feb 2026 00:49:31.888          3637.697
                  13 Feb 2026 01:25:04.826    13 Feb 2026 02:25:42.051          3637.225
                  13 Feb 2026 03:01:15.302    13 Feb 2026 04:01:52.298          3636.996
                  13 Feb 2026 04:37:25.818    13 Feb 2026 05:38:02.629          3636.811
                  13 Feb 2026 06:13:36.429    13 Feb 2026 07:14:13.022          3636.593
                  13 Feb 2026 07:49:47.064    13 Feb 2026 08:50:23.396          3636.332
                  13 Feb 2026 09:25:57.654    13 Feb 2026 10:26:33.625          3635.971
                  13 Feb 2026 11:02:08.103    13 Feb 2026 12:02:43.855          3635.752
                  13 Feb 2026 12:38:18.478    13 Feb 2026 13:38:54.177          3635.698
                  13 Feb 2026 14:14:28.912    13 Feb 2026 15:15:04.470          3635.558
                  13 Feb 2026 15:50:39.309    13 Feb 2026 16:51:14.758          3635.449
                  13 Feb 2026 17:26:49.676    13 Feb 2026 18:27:25.063          3635.387
                  13 Feb 2026 19:03:00.056    13 Feb 2026 20:03:35.357          3635.300
                  13 Feb 2026 20:39:10.401    13 Feb 2026 21:39:45.694          3635.293
                  13 Feb 2026 22:15:20.760    13 Feb 2026 23:15:55.914          3635.154
                  13 Feb 2026 23:51:31.032    14 Feb 2026 00:52:06.152          3635.120
                  14 Feb 2026 01:27:41.254    14 Feb 2026 02:28:16.327          3635.073
                  14 Feb 2026 03:03:51.405    14 Feb 2026 04:04:26.488          3635.083
                  14 Feb 2026 04:40:01.528    14 Feb 2026 05:40:36.888          3635.360
                  14 Feb 2026 06:16:11.877    14 Feb 2026 07:16:47.205          3635.328
                  14 Feb 2026 07:52:22.172    14 Feb 2026 08:52:57.464          3635.292
                  14 Feb 2026 09:28:32.327    14 Feb 2026 10:29:07.736          3635.410
                  14 Feb 2026 11:04:42.468    14 Feb 2026 12:05:17.882          3635.414
                  14 Feb 2026 12:40:52.479    14 Feb 2026 13:41:28.199          3635.720
                  14 Feb 2026 14:17:02.591    14 Feb 2026 15:17:38.474          3635.883
                  14 Feb 2026 15:53:12.684    14 Feb 2026 16:53:48.670          3635.986
                  14 Feb 2026 17:29:22.649    14 Feb 2026 18:29:59.060          3636.411
                  14 Feb 2026 19:05:32.779    14 Feb 2026 20:06:09.269          3636.489
                  14 Feb 2026 20:41:42.798    14 Feb 2026 21:42:19.549          3636.751
                  14 Feb 2026 22:17:52.803    14 Feb 2026 23:18:29.823          3637.020
                  14 Feb 2026 23:54:02.803    15 Feb 2026 00:54:39.960          3637.157
                  15 Feb 2026 01:30:12.635    15 Feb 2026 02:30:50.170          3637.535
                  15 Feb 2026 03:06:22.515    15 Feb 2026 04:07:00.359          3637.843
