Simulation/Communication/Sun.txt

                                                                   3 Jul 2024 14:45:12
Satellite-NOVASAT-16U:  Lighting


Sunlight Times
--------------
                     Start Time (UTCG)           Stop Time (UTCG)       Duration (sec)
                  -----------------------    -----------------------    --------------
                  1 Jan 2026 10:00:00.000    1 Jan 2026 10:17:52.954          1072.954
                  1 Jan 2026 10:52:33.079    1 Jan 2026 11:54:20.302          3707.223
                  1 Jan 2026 12:29:00.734    1 Jan 2026 13:30:47.635          3706.901
                  1 Jan 2026 14:05:28.384    1 Jan 2026 15:07:14.958          3706.574
                  1 Jan 2026 15:41:56.034    1 Jan 2026 16:43:42.267          3706.233
                  1 Jan 2026 17:18:23.682    1 Jan 2026 18:20:09.562          3705.880
                  1 Jan 2026 18:54:51.324    1 Jan 2026 19:56:36.842          3705.518
                  1 Jan 2026 20:31:18.960    1 Jan 2026 21:33:04.109          3705.149
                  1 Jan 2026 22:07:46.594    1 Jan 2026 23:09:31.363          3704.769
                  1 Jan 2026 23:44:14.225    2 Jan 2026 00:45:58.602          3704.377
                  2 Jan 2026 01:20:41.847    2 Jan 2026 02:22:25.828          3703.981
                  2 Jan 2026 02:57:09.468    2 Jan 2026 03:58:53.039          3703.571
                  2 Jan 2026 04:33:37.079    2 Jan 2026 05:35:20.236          3703.157
                  2 Jan 2026 06:10:04.688    2 Jan 2026 07:11:47.418          3702.730
                  2 Jan 2026 07:46:32.287    2 Jan 2026 08:48:14.585          3702.298
                  2 Jan 2026 09:22:59.884    2 Jan 2026 10:24:41.738          3701.854
                  2 Jan 2026 10:59:27.469    2 Jan 2026 12:01:08.875          3701.406
                  2 Jan 2026 12:35:55.051    2 Jan 2026 13:37:35.997          3700.946
                  2 Jan 2026 14:12:22.622    2 Jan 2026 15:14:03.104          3700.482
                  2 Jan 2026 15:48:50.187    2 Jan 2026 16:50:30.195          3700.009
                  2 Jan 2026 17:25:17.745    2 Jan 2026 18:26:57.272          3699.526
                  2 Jan 2026 19:01:45.292    2 Jan 2026 20:03:24.332          3699.041
                  2 Jan 2026 20:38:12.831    2 Jan 2026 21:39:51.378          3698.546
                  2 Jan 2026 22:14:40.363    2 Jan 2026 23:16:18.407          3698.044
                  2 Jan 2026 23:51:07.885    3 Jan 2026 00:52:45.421          3697.536
                  3 Jan 2026 01:27:35.395    3 Jan 2026 02:29:12.419          3697.024
                  3 Jan 2026 03:04:02.898    3 Jan 2026 04:05:39.401          3696.503
                  3 Jan 2026 04:40:30.387    3 Jan 2026 05:42:06.368          3695.980
                  3 Jan 2026 06:16:57.871    3 Jan 2026 07:18:33.318          3695.447
                  3 Jan 2026 07:53:25.342    3 Jan 2026 08:55:00.253          3694.911
                  3 Jan 2026 09:29:52.799    3 Jan 2026 10:31:27.171          3694.372
                  3 Jan 2026 11:06:20.248    3 Jan 2026 12:07:54.074          3693.826
                  3 Jan 2026 12:42:47.685    3 Jan 2026 13:44:20.960          3693.275
                  3 Jan 2026 14:19:15.111    3 Jan 2026 15:20:47.830          3692.720
                  3 Jan 2026 15:55:42.526    3 Jan 2026 16:57:14.685          3692.159
                  3 Jan 2026 17:32:09.927    3 Jan 2026 18:33:41.523          3691.595
                  3 Jan 2026 19:08:37.314    3 Jan 2026 20:10:08.345          3691.030
                  3 Jan 2026 20:45:04.691    3 Jan 2026 21:46:35.151          3690.460
                  3 Jan 2026 22:21:32.054    3 Jan 2026 23:23:01.941          3689.887
                  3 Jan 2026 23:57:59.404    4 Jan 2026 00:59:28.714          3689.310
                  4 Jan 2026 01:34:26.743    4 Jan 2026 02:35:55.472          3688.729
                  4 Jan 2026 03:10:54.066    4 Jan 2026 04:12:22.213          3688.147
                  4 Jan 2026 04:47:21.376    4 Jan 2026 05:48:48.939          3687.563
                  4 Jan 2026 06:23:48.671    4 Jan 2026 07:25:15.648          3686.977
                  4 Jan 2026 08:00:15.951    4 Jan 2026 09:01:42.341          3686.391
                  4 Jan 2026 09:36:43.217    4 Jan 2026 10:00:00.000          1396.783

Statistics
----------
Min Duration      1 Jan 2026 10:00:00.000    1 Jan 2026 10:17:52.954          1072.954
Max Duration      1 Jan 2026 10:52:33.079    1 Jan 2026 11:54:20.302          3707.223
Mean Duration                                                                 3590.691
Total Duration                                                              165171.793
