Simulation/Extra/3 days comm/Inmarsat3.txt

                                                                            21 Jul 2024 22:01:38
Satellite-NOVASAT-16U-Sensor-LargeAngle-To-Satellite-Inmarsat4F4_39215:  Access Summary Report


LargeAngle-To-Inmarsat4F4_39215
-------------------------------
                  Access       Start Time (UTCG)           Stop Time (UTCG)       Duration (sec)
                  ------    -----------------------    -----------------------    --------------
                       1    1 Jan 2026 11:05:53.248    1 Jan 2026 11:36:27.373          1834.125
                       2    1 Jan 2026 12:48:31.391    1 Jan 2026 13:18:18.603          1787.212
                       3    1 Jan 2026 14:30:04.525    1 Jan 2026 14:59:46.221          1781.695
                       4    1 Jan 2026 16:11:33.929    1 Jan 2026 16:41:51.402          1817.473
                       5    1 Jan 2026 17:54:07.268    1 Jan 2026 18:25:38.842          1891.573
                       6    1 Jan 2026 19:38:53.037    1 Jan 2026 20:11:17.932          1944.895
                       7    1 Jan 2026 21:24:49.708    1 Jan 2026 21:56:24.494          1894.786
                       8    1 Jan 2026 23:09:07.801    1 Jan 2026 23:39:27.071          1819.271
                       9    2 Jan 2026 00:51:30.609    2 Jan 2026 01:21:11.125          1780.516
                      10    2 Jan 2026 02:32:57.983    2 Jan 2026 03:02:40.767          1782.784
                      11    2 Jan 2026 04:14:30.893    2 Jan 2026 04:44:57.669          1826.776
                      12    2 Jan 2026 05:57:18.754    2 Jan 2026 06:29:05.571          1906.817
                      13    2 Jan 2026 07:42:22.603    2 Jan 2026 08:14:52.985          1950.383
                      14    2 Jan 2026 09:28:13.212    2 Jan 2026 09:59:42.571          1889.359
                      15    2 Jan 2026 11:12:12.980    2 Jan 2026 11:42:28.865          1815.884
                      16    2 Jan 2026 12:54:24.873    2 Jan 2026 13:24:06.312          1781.439
                      17    2 Jan 2026 14:35:50.254    2 Jan 2026 15:05:38.213          1787.959
                      18    2 Jan 2026 16:17:30.490    2 Jan 2026 16:48:06.831          1836.341
                      19    2 Jan 2026 18:00:37.631    2 Jan 2026 18:32:32.621          1914.990
                      20    2 Jan 2026 19:46:01.155    2 Jan 2026 20:18:21.057          1939.902
                      21    2 Jan 2026 21:31:41.486    2 Jan 2026 22:02:51.343          1869.857
                      22    2 Jan 2026 23:15:20.298    2 Jan 2026 23:45:23.235          1802.937
                      23    3 Jan 2026 00:57:19.680    3 Jan 2026 01:26:56.242          1776.561
                      24    3 Jan 2026 02:38:41.836    3 Jan 2026 03:08:32.777          1790.941
                      25    3 Jan 2026 04:20:28.472    3 Jan 2026 04:51:16.164          1847.692
                      26    3 Jan 2026 06:03:52.949    3 Jan 2026 06:36:02.280          1929.331
                      27    3 Jan 2026 07:49:29.626    3 Jan 2026 08:21:50.495          1940.868
                      28    3 Jan 2026 09:34:56.878    3 Jan 2026 10:06:01.656          1864.778
                      29    3 Jan 2026 11:18:18.781    3 Jan 2026 11:48:20.132          1801.351
                      30    3 Jan 2026 13:00:09.999    3 Jan 2026 13:29:49.206          1779.207
                      31    3 Jan 2026 14:41:32.739    3 Jan 2026 15:11:30.632          1797.894
                      32    3 Jan 2026 16:23:30.016    3 Jan 2026 16:54:28.485          1858.469
                      33    3 Jan 2026 18:07:16.836    3 Jan 2026 18:39:30.687          1933.851
                      34    3 Jan 2026 19:53:06.540    3 Jan 2026 20:25:11.550          1925.010
                      35    3 Jan 2026 21:38:16.864    3 Jan 2026 22:09:02.963          1846.099
                      36    3 Jan 2026 23:21:19.636    3 Jan 2026 23:51:09.973          1790.337
                      37    4 Jan 2026 01:03:01.092    4 Jan 2026 01:32:37.211          1776.118
                      38    4 Jan 2026 02:44:23.155    4 Jan 2026 03:14:25.993          1802.838
                      39    4 Jan 2026 04:26:29.925    4 Jan 2026 04:57:41.516          1871.591
                      40    4 Jan 2026 06:10:35.747    4 Jan 2026 06:43:01.272          1945.526
                      41    4 Jan 2026 07:56:30.954    4 Jan 2026 08:28:33.651          1922.696
                      42    4 Jan 2026 09:41:24.055    4 Jan 2026 10:00:00.000          1115.945

Statistics
----------
Min Duration          42    4 Jan 2026 09:41:24.055    4 Jan 2026 10:00:00.000          1115.945
Max Duration          13    2 Jan 2026 07:42:22.603    2 Jan 2026 08:14:52.985          1950.383
Mean Duration                                                                           1832.716
Total Duration                                                                         76974.080
