Communication/Umbra.txt

                                                                   3 Jul 2024 14:38:42
Satellite-NOVASAT-16U:  Lighting


Umbra Times
-----------
                     Start Time (UTCG)           Stop Time (UTCG)       Duration (sec)
                  -----------------------    -----------------------    --------------
                  1 Jan 2026 10:18:02.470    1 Jan 2026 10:52:23.596          2061.126
                  1 Jan 2026 11:54:29.814    1 Jan 2026 12:28:51.256          2061.442
                  1 Jan 2026 13:30:57.143    1 Jan 2026 14:05:18.916          2061.773
                  1 Jan 2026 15:07:24.462    1 Jan 2026 15:41:46.568          2062.106
                  1 Jan 2026 16:43:51.766    1 Jan 2026 17:18:14.219          2062.453
                  1 Jan 2026 18:20:19.056    1 Jan 2026 18:54:41.867          2062.811
                  1 Jan 2026 19:56:46.331    1 Jan 2026 20:31:09.513          2063.182
                  1 Jan 2026 21:33:13.594    1 Jan 2026 22:07:37.153          2063.559
                  1 Jan 2026 23:09:40.843    1 Jan 2026 23:44:04.789          2063.946
                  2 Jan 2026 00:46:08.077    2 Jan 2026 01:20:32.419          2064.342
                  2 Jan 2026 02:22:35.297    2 Jan 2026 02:57:00.044          2064.747
                  2 Jan 2026 03:59:02.503    2 Jan 2026 04:33:27.663          2065.161
                  2 Jan 2026 05:35:29.695    2 Jan 2026 06:09:55.277          2065.582
                  2 Jan 2026 07:11:56.871    2 Jan 2026 07:46:22.885          2066.014
                  2 Jan 2026 08:48:24.032    2 Jan 2026 09:22:50.485          2066.453
                  2 Jan 2026 10:24:51.179    2 Jan 2026 10:59:18.080          2066.901
                  2 Jan 2026 12:01:18.310    2 Jan 2026 12:35:45.667          2067.357
                  2 Jan 2026 13:37:45.426    2 Jan 2026 14:12:13.244          2067.819
                  2 Jan 2026 15:14:12.526    2 Jan 2026 15:48:40.818          2068.292
                  2 Jan 2026 16:50:39.611    2 Jan 2026 17:25:08.380          2068.769
                  2 Jan 2026 18:27:06.681    2 Jan 2026 19:01:35.938          2069.257
                  2 Jan 2026 20:03:33.735    2 Jan 2026 20:38:03.483          2069.748
                  2 Jan 2026 21:40:00.774    2 Jan 2026 22:14:31.021          2070.247
                  2 Jan 2026 23:16:27.797    2 Jan 2026 23:50:58.550          2070.754
                  3 Jan 2026 00:52:54.803    3 Jan 2026 01:27:26.069          2071.266
                  3 Jan 2026 02:29:21.795    3 Jan 2026 03:03:53.581          2071.786
                  3 Jan 2026 04:05:48.770    3 Jan 2026 04:40:21.080          2072.310
                  3 Jan 2026 05:42:15.729    3 Jan 2026 06:16:48.569          2072.840
                  3 Jan 2026 07:18:42.672    3 Jan 2026 07:53:16.045          2073.373
                  3 Jan 2026 08:55:09.599    3 Jan 2026 09:29:43.513          2073.914
                  3 Jan 2026 10:31:36.510    3 Jan 2026 11:06:10.970          2074.460
                  3 Jan 2026 12:08:03.405    3 Jan 2026 12:42:38.415          2075.010
                  3 Jan 2026 13:44:30.284    3 Jan 2026 14:19:05.849          2075.565
                  3 Jan 2026 15:20:57.147    3 Jan 2026 15:55:33.271          2076.124
                  3 Jan 2026 16:57:23.994    3 Jan 2026 17:32:00.682          2076.689
                  3 Jan 2026 18:33:50.824    3 Jan 2026 19:08:28.078          2077.254
                  3 Jan 2026 20:10:17.638    3 Jan 2026 20:44:55.462          2077.824
                  3 Jan 2026 21:46:44.436    3 Jan 2026 22:21:22.834          2078.398
                  3 Jan 2026 23:23:11.218    3 Jan 2026 23:57:50.194          2078.976
                  4 Jan 2026 00:59:37.984    4 Jan 2026 01:34:17.538          2079.554
                  4 Jan 2026 02:36:04.733    4 Jan 2026 03:10:44.870          2080.136
                  4 Jan 2026 04:12:31.467    4 Jan 2026 04:47:12.188          2080.721
                  4 Jan 2026 05:48:58.184    4 Jan 2026 06:23:39.492          2081.308
                  4 Jan 2026 07:25:24.885    4 Jan 2026 08:00:06.782          2081.896
                  4 Jan 2026 09:01:51.571    4 Jan 2026 09:36:34.059          2082.489

Statistics
----------
Min Duration      1 Jan 2026 10:18:02.470    1 Jan 2026 10:52:23.596          2061.126
Max Duration      4 Jan 2026 09:01:51.571    4 Jan 2026 09:36:34.059          2082.489
Mean Duration                                                                 2070.794
Total Duration                                                               93185.731
