Simulation/Communication/old/InmarsatAccess.txt

                                                                                                                                          1 Jul 2024 14:58:59
Satellite-NOVASAT-16U-Sensor-WideAngleSensor-To-Satellite-Inmarsat3F2_24307, Satellite-Inmarsat4F3_33278, Satellite-Inmarsat4F4_39215:  Access Summary Report


WideAngleSensor-To-Inmarsat3F2_24307
------------------------------------
                  Access       Start Time (UTCG)           Stop Time (UTCG)       Duration (sec)
                  ------    -----------------------    -----------------------    --------------
                       1    1 Jan 2026 10:32:51.019    1 Jan 2026 10:39:51.266           420.248
                       2    1 Jan 2026 11:21:21.636    1 Jan 2026 11:28:41.897           440.261
                       3    1 Jan 2026 12:13:28.311    1 Jan 2026 12:21:27.110           478.800
                       4    1 Jan 2026 13:02:09.928    1 Jan 2026 13:11:07.005           537.077
                       5    1 Jan 2026 13:55:41.836    1 Jan 2026 14:06:03.950           622.114
                       6    1 Jan 2026 14:45:26.945    1 Jan 2026 14:57:16.870           709.925
                       7    1 Jan 2026 15:41:58.546    1 Jan 2026 15:54:38.511           759.965
                       8    1 Jan 2026 16:33:30.150    1 Jan 2026 16:45:27.077           716.926
                       9    1 Jan 2026 17:30:02.704    1 Jan 2026 17:40:27.063           624.359
                      10    1 Jan 2026 18:20:27.695    1 Jan 2026 18:29:30.005           542.310
                      11    1 Jan 2026 19:14:09.824    1 Jan 2026 19:22:10.830           481.006
                      12    1 Jan 2026 20:03:20.853    1 Jan 2026 20:10:43.037           442.184
                      13    1 Jan 2026 20:55:34.641    1 Jan 2026 21:02:35.672           421.030
                      14    1 Jan 2026 21:44:14.585    1 Jan 2026 21:51:09.392           414.807
                      15    1 Jan 2026 22:36:03.496    1 Jan 2026 22:43:07.047           423.551
                      16    1 Jan 2026 23:24:35.152    1 Jan 2026 23:32:02.362           447.210
                      17    2 Jan 2026 00:16:47.945    2 Jan 2026 00:24:58.231           490.285
                      18    2 Jan 2026 01:05:35.024    2 Jan 2026 01:14:48.564           553.540
                      19    2 Jan 2026 01:59:23.910    2 Jan 2026 02:10:06.616           642.706
                      20    2 Jan 2026 02:49:25.150    2 Jan 2026 03:01:30.113           724.963
                      21    2 Jan 2026 03:46:14.157    2 Jan 2026 03:58:47.429           753.272
                      22    2 Jan 2026 04:37:48.319    2 Jan 2026 04:49:21.767           693.447
                      23    2 Jan 2026 05:33:57.630    2 Jan 2026 05:43:57.945           600.315
                      24    2 Jan 2026 06:24:11.586    2 Jan 2026 06:32:55.540           523.954
                      25    2 Jan 2026 07:17:37.777    2 Jan 2026 07:25:26.795           469.018
                      26    2 Jan 2026 08:06:43.912    2 Jan 2026 08:13:59.005           435.093
                      27    2 Jan 2026 08:58:52.130    2 Jan 2026 09:05:50.296           418.166
                      28    2 Jan 2026 09:47:30.486    2 Jan 2026 09:54:26.125           415.639
                      29    2 Jan 2026 10:39:20.311    2 Jan 2026 10:46:28.480           428.168
                      30    2 Jan 2026 11:27:52.587    2 Jan 2026 11:35:28.491           455.904
                      31    2 Jan 2026 12:20:13.339    2 Jan 2026 12:28:37.267           503.929
                      32    2 Jan 2026 13:09:05.309    2 Jan 2026 13:18:37.206           571.897
                      33    2 Jan 2026 14:03:13.692    2 Jan 2026 14:14:16.913           663.221
                      34    2 Jan 2026 14:53:28.775    2 Jan 2026 15:05:43.937           735.162
                      35    2 Jan 2026 15:50:29.441    2 Jan 2026 16:02:49.913           740.473
                      36    2 Jan 2026 16:41:57.675    2 Jan 2026 16:53:06.996           669.321
                      37    2 Jan 2026 17:37:43.601    2 Jan 2026 17:47:22.548           578.947
                      38    2 Jan 2026 18:27:45.891    2 Jan 2026 18:36:14.563           508.672
                      39    2 Jan 2026 19:20:59.191    2 Jan 2026 19:28:38.615           459.425
                      40    2 Jan 2026 20:10:00.768    2 Jan 2026 20:17:10.569           429.801
                      41    2 Jan 2026 21:02:05.018    2 Jan 2026 21:09:01.487           416.468
                      42    2 Jan 2026 21:50:42.437    2 Jan 2026 21:57:39.626           417.189
                      43    2 Jan 2026 22:42:33.782    2 Jan 2026 22:49:46.916           433.135
                      44    2 Jan 2026 23:31:07.929    2 Jan 2026 23:38:52.651           464.722
                      45    3 Jan 2026 00:23:36.852    3 Jan 2026 00:32:14.396           517.544
                      46    3 Jan 2026 01:12:36.283    3 Jan 2026 01:22:26.223           589.940
                      47    3 Jan 2026 02:07:04.399    3 Jan 2026 02:18:26.217           681.818
                      48    3 Jan 2026 02:57:36.855    3 Jan 2026 03:09:57.488           740.633
                      49    3 Jan 2026 03:54:44.139    3 Jan 2026 04:06:47.751           723.612
                      50    3 Jan 2026 04:46:07.352    3 Jan 2026 04:56:51.727           644.375
                      51    3 Jan 2026 05:41:29.482    3 Jan 2026 05:50:47.422           557.940
                      52    3 Jan 2026 06:31:22.534    3 Jan 2026 06:39:36.188           493.655
                      53    3 Jan 2026 07:24:23.178    3 Jan 2026 07:31:53.278           450.100
                      54    3 Jan 2026 08:13:21.101    3 Jan 2026 08:20:25.975           424.873
                      55    3 Jan 2026 09:05:21.628    3 Jan 2026 09:12:17.100           415.472
                      56    3 Jan 2026 09:53:58.177    3 Jan 2026 10:00:57.980           419.802
                      57    3 Jan 2026 10:45:52.012    3 Jan 2026 10:53:11.665           439.653
                      58    3 Jan 2026 11:34:27.681    3 Jan 2026 11:42:23.199           475.518
                      59    3 Jan 2026 12:27:06.937    3 Jan 2026 12:36:00.335           533.398
                      60    3 Jan 2026 13:16:13.371    3 Jan 2026 13:26:22.676           609.306
                      61    3 Jan 2026 14:11:03.115    3 Jan 2026 14:22:41.362           698.248
                      62    3 Jan 2026 15:01:48.745    3 Jan 2026 15:14:08.555           739.810
                      63    3 Jan 2026 15:58:55.467    3 Jan 2026 16:10:38.680           703.214
                      64    3 Jan 2026 16:50:07.324    3 Jan 2026 17:00:28.046           620.722
                      65    3 Jan 2026 17:45:07.376    3 Jan 2026 17:54:07.114           539.738
                      66    3 Jan 2026 18:34:50.816    3 Jan 2026 18:42:52.152           481.336
                      67    3 Jan 2026 19:27:41.416    3 Jan 2026 19:35:04.194           442.777
                      68    3 Jan 2026 20:16:35.892    3 Jan 2026 20:23:37.308           421.417
                      69    3 Jan 2026 21:08:34.012    3 Jan 2026 21:15:29.383           415.371
                      70    3 Jan 2026 21:57:10.289    3 Jan 2026 22:04:13.223           422.934
                      71    3 Jan 2026 22:49:07.085    3 Jan 2026 22:56:33.419           446.334
                      72    3 Jan 2026 23:37:45.619    3 Jan 2026 23:45:51.868           486.249
                      73    4 Jan 2026 00:30:35.358    4 Jan 2026 00:39:44.273           548.914
                      74    4 Jan 2026 01:19:51.645    4 Jan 2026 01:30:19.216           627.570
                      75    4 Jan 2026 02:15:02.392    4 Jan 2026 02:26:53.489           711.097
                      76    4 Jan 2026 03:06:03.352    4 Jan 2026 03:18:17.345           733.994
                      77    4 Jan 2026 04:03:04.433    4 Jan 2026 04:14:25.375           680.942
                      78    4 Jan 2026 04:54:07.090    4 Jan 2026 05:04:04.422           597.333
                      79    4 Jan 2026 05:48:45.579    4 Jan 2026 05:57:27.656           522.078
                      80    4 Jan 2026 06:38:21.661    4 Jan 2026 06:46:11.008           469.348
                      81    4 Jan 2026 07:31:02.439    4 Jan 2026 07:38:18.261           435.822
                      82    4 Jan 2026 08:19:54.288    4 Jan 2026 08:26:52.760           418.472
                      83    4 Jan 2026 09:11:50.368    4 Jan 2026 09:18:46.532           416.163

Statistics
----------
Min Duration          14    1 Jan 2026 21:44:14.585    1 Jan 2026 21:51:09.392           414.807
Max Duration           7    1 Jan 2026 15:41:58.546    1 Jan 2026 15:54:38.511           759.965
Mean Duration                                                                            541.881
Total Duration                                                                         44976.125


WideAngleSensor-To-Inmarsat4F3_33278
------------------------------------
                  Access       Start Time (UTCG)           Stop Time (UTCG)       Duration (sec)
                  ------    -----------------------    -----------------------    --------------
                       1    1 Jan 2026 10:15:35.901    1 Jan 2026 10:25:12.761           576.860
                       2    1 Jan 2026 11:05:53.969    1 Jan 2026 11:14:28.037           514.068
                       3    1 Jan 2026 11:59:24.182    1 Jan 2026 12:07:10.334           466.151
                       4    1 Jan 2026 12:48:40.929    1 Jan 2026 12:55:56.437           435.507
                       5    1 Jan 2026 13:40:59.411    1 Jan 2026 13:47:58.999           419.588
                       6    1 Jan 2026 14:29:48.917    1 Jan 2026 14:36:46.098           417.180
                       7    1 Jan 2026 15:21:49.824    1 Jan 2026 15:28:58.039           428.216
                       8    1 Jan 2026 16:10:34.573    1 Jan 2026 16:18:07.832           453.259
                       9    1 Jan 2026 17:03:05.386    1 Jan 2026 17:11:20.330           494.944
                      10    1 Jan 2026 17:52:12.196    1 Jan 2026 18:01:24.555           552.359
                      11    1 Jan 2026 18:46:19.160    1 Jan 2026 18:56:41.633           622.473
                      12    1 Jan 2026 19:36:39.800    1 Jan 2026 19:47:55.240           675.439
                      13    1 Jan 2026 20:32:58.207    1 Jan 2026 20:44:16.037           677.830
                      14    1 Jan 2026 21:24:12.668    1 Jan 2026 21:34:39.420           626.752
                      15    1 Jan 2026 22:19:34.212    1 Jan 2026 22:28:51.035           556.823
                      16    1 Jan 2026 23:09:40.656    1 Jan 2026 23:17:58.954           498.298
                      17    2 Jan 2026 00:02:56.311    2 Jan 2026 00:10:31.880           455.569
                      18    2 Jan 2026 00:52:07.289    2 Jan 2026 00:59:16.724           429.435
                      19    2 Jan 2026 01:44:20.418    2 Jan 2026 01:51:17.983           417.565
                      20    2 Jan 2026 02:33:08.105    2 Jan 2026 02:40:07.063           418.958
                      21    2 Jan 2026 03:25:10.339    2 Jan 2026 03:32:24.336           433.997
                      22    2 Jan 2026 04:13:56.527    2 Jan 2026 04:21:39.943           463.417
                      23    2 Jan 2026 05:06:36.587    2 Jan 2026 05:15:06.698           510.111
                      24    2 Jan 2026 05:55:50.803    2 Jan 2026 06:05:22.421           571.617
                      25    2 Jan 2026 06:50:18.218    2 Jan 2026 07:00:59.362           641.145
                      26    2 Jan 2026 07:40:53.810    2 Jan 2026 07:52:16.031           682.221
                      27    2 Jan 2026 08:37:18.956    2 Jan 2026 08:48:24.947           665.991
                      28    2 Jan 2026 09:28:28.319    2 Jan 2026 09:38:34.406           606.086
                      29    2 Jan 2026 10:23:28.779    2 Jan 2026 10:32:26.359           537.580
                      30    2 Jan 2026 11:13:24.860    2 Jan 2026 11:21:28.625           483.765
                      31    2 Jan 2026 12:06:27.247    2 Jan 2026 12:13:53.421           446.174
                      32    2 Jan 2026 12:55:33.339    2 Jan 2026 13:02:37.788           424.448
                      33    2 Jan 2026 13:47:42.059    2 Jan 2026 13:54:38.714           416.655
                      34    2 Jan 2026 14:36:28.342    2 Jan 2026 14:43:30.299           421.957
                      35    2 Jan 2026 15:28:32.998    2 Jan 2026 15:35:54.213           441.215
                      36    2 Jan 2026 16:17:21.026    2 Jan 2026 16:25:16.267           475.241
                      37    2 Jan 2026 17:10:12.155    2 Jan 2026 17:18:59.140           526.985
                      38    2 Jan 2026 17:59:34.660    2 Jan 2026 18:09:26.270           591.610
                      39    2 Jan 2026 18:54:23.683    2 Jan 2026 19:05:21.090           657.408
                      40    2 Jan 2026 19:45:12.340    2 Jan 2026 19:56:35.590           683.250
                      41    2 Jan 2026 20:41:37.739    2 Jan 2026 20:52:27.842           650.103
                      42    2 Jan 2026 21:32:38.073    2 Jan 2026 21:42:23.251           585.177
                      43    2 Jan 2026 22:27:17.671    2 Jan 2026 22:35:57.555           519.885
                      44    2 Jan 2026 23:17:03.792    2 Jan 2026 23:24:54.848           471.056
                      45    3 Jan 2026 00:09:54.751    3 Jan 2026 00:17:13.092           438.341
                      46    3 Jan 2026 00:58:56.475    3 Jan 2026 01:05:57.278           420.804
                      47    3 Jan 2026 01:51:01.972    3 Jan 2026 01:57:58.852           416.880
                      48    3 Jan 2026 02:39:47.360    3 Jan 2026 02:46:53.384           426.025
                      49    3 Jan 2026 03:31:55.409    3 Jan 2026 03:39:24.905           449.496
                      50    3 Jan 2026 04:20:46.197    3 Jan 2026 04:28:54.354           488.157
                      51    3 Jan 2026 05:13:49.708    3 Jan 2026 05:22:54.449           544.741
                      52    3 Jan 2026 06:03:22.389    3 Jan 2026 06:13:33.616           611.227
                      53    3 Jan 2026 06:58:32.943    3 Jan 2026 07:09:42.972           670.029
                      54    3 Jan 2026 07:49:33.784    3 Jan 2026 08:00:52.520           678.736
                      55    3 Jan 2026 08:45:53.540    3 Jan 2026 08:56:25.086           631.546
                      56    3 Jan 2026 09:36:43.988    3 Jan 2026 09:46:08.505           564.517
                      57    3 Jan 2026 10:31:03.380    3 Jan 2026 10:39:26.772           503.392
                      58    3 Jan 2026 11:20:40.908    3 Jan 2026 11:28:20.499           459.592
                      59    3 Jan 2026 12:13:21.636    3 Jan 2026 12:20:33.288           431.652
                      60    3 Jan 2026 13:02:19.758    3 Jan 2026 13:09:17.999           418.241
                      61    3 Jan 2026 13:54:22.950    3 Jan 2026 14:01:21.234           418.284
                      62    3 Jan 2026 14:43:07.876    3 Jan 2026 14:50:19.290           431.414
                      63    3 Jan 2026 15:35:20.556    3 Jan 2026 15:42:59.931           459.375
                      64    3 Jan 2026 16:24:14.662    3 Jan 2026 16:32:37.455           502.794
                      65    3 Jan 2026 17:17:32.596    3 Jan 2026 17:26:56.430           563.834
                      66    3 Jan 2026 18:07:16.380    3 Jan 2026 18:17:46.434           630.054
                      67    3 Jan 2026 19:02:47.719    3 Jan 2026 19:14:05.628           677.909
                      68    3 Jan 2026 19:53:56.608    3 Jan 2026 20:05:05.386           668.778
                      69    3 Jan 2026 20:50:05.027    3 Jan 2026 21:00:16.393           611.367
                      70    3 Jan 2026 21:40:43.570    3 Jan 2026 21:49:48.502           544.932
                      71    3 Jan 2026 22:34:44.169    3 Jan 2026 22:42:52.839           488.670
                      72    3 Jan 2026 23:24:13.624    3 Jan 2026 23:31:43.438           449.814
                      73    4 Jan 2026 00:16:45.747    4 Jan 2026 00:23:52.113           426.366
                      74    4 Jan 2026 01:05:40.695    4 Jan 2026 01:12:37.590           416.896
                      75    4 Jan 2026 01:57:42.655    4 Jan 2026 02:04:43.404           420.749
                      76    4 Jan 2026 02:46:27.634    4 Jan 2026 02:53:45.489           437.855
                      77    4 Jan 2026 03:38:45.965    4 Jan 2026 03:46:36.275           470.310
                      78    4 Jan 2026 04:27:44.496    4 Jan 2026 04:36:22.908           518.411
                      79    4 Jan 2026 05:21:18.206    4 Jan 2026 05:31:01.371           583.165
                      80    4 Jan 2026 06:11:14.923    4 Jan 2026 06:22:01.679           646.756
                      81    4 Jan 2026 07:07:04.770    4 Jan 2026 07:18:25.241           680.470
                      82    4 Jan 2026 07:58:19.151    4 Jan 2026 08:09:13.759           654.608
                      83    4 Jan 2026 08:54:12.164    4 Jan 2026 09:04:02.765           590.601
                      84    4 Jan 2026 09:44:39.390    4 Jan 2026 09:53:25.790           526.400

Statistics
----------
Min Duration          33    2 Jan 2026 13:47:42.059    2 Jan 2026 13:54:38.714           416.655
Max Duration          40    2 Jan 2026 19:45:12.340    2 Jan 2026 19:56:35.590           683.250
Mean Duration                                                                            524.019
Total Duration                                                                         44017.559


WideAngleSensor-To-Inmarsat4F4_39215
------------------------------------
                  Access       Start Time (UTCG)           Stop Time (UTCG)       Duration (sec)
                  ------    -----------------------    -----------------------    --------------
                       1    1 Jan 2026 10:25:55.046    1 Jan 2026 10:32:54.687           419.641
                       2    1 Jan 2026 11:18:02.860    1 Jan 2026 11:25:00.779           417.919
                       3    1 Jan 2026 12:06:51.236    1 Jan 2026 12:14:00.296           429.060
                       4    1 Jan 2026 12:59:05.594    1 Jan 2026 13:06:39.460           453.865
                       5    1 Jan 2026 13:48:01.850    1 Jan 2026 13:56:15.170           493.320
                       6    1 Jan 2026 14:41:15.370    1 Jan 2026 14:50:23.698           548.328
                       7    1 Jan 2026 15:30:56.767    1 Jan 2026 15:41:06.461           609.694
                       8    1 Jan 2026 16:26:12.331    1 Jan 2026 16:37:08.683           656.351
                       9    1 Jan 2026 17:17:13.797    1 Jan 2026 17:28:09.716           655.919
                      10    1 Jan 2026 18:13:15.463    1 Jan 2026 18:23:23.254           607.792
                      11    1 Jan 2026 19:03:57.591    1 Jan 2026 19:13:04.253           546.663
                      12    1 Jan 2026 19:58:04.448    1 Jan 2026 20:06:16.279           491.830
                      13    1 Jan 2026 20:47:39.648    1 Jan 2026 20:55:12.577           452.929
                      14    1 Jan 2026 21:40:17.867    1 Jan 2026 21:47:26.306           428.439
                      15    1 Jan 2026 22:29:17.041    1 Jan 2026 22:36:14.866           417.825
                      16    1 Jan 2026 23:21:22.885    1 Jan 2026 23:28:22.730           419.845
                      17    2 Jan 2026 00:10:10.801    2 Jan 2026 00:17:25.670           434.869
                      18    2 Jan 2026 01:02:29.969    2 Jan 2026 01:10:13.999           464.030
                      19    2 Jan 2026 01:51:29.644    2 Jan 2026 01:59:57.674           508.031
                      20    2 Jan 2026 02:44:57.553    2 Jan 2026 02:54:24.375           566.822
                      21    2 Jan 2026 03:34:49.795    2 Jan 2026 03:45:16.724           626.929
                      22    2 Jan 2026 04:30:23.802    2 Jan 2026 04:41:26.202           662.400
                      23    2 Jan 2026 05:21:31.156    2 Jan 2026 05:32:17.633           646.477
                      24    2 Jan 2026 06:17:21.589    2 Jan 2026 06:27:11.888           590.299
                      25    2 Jan 2026 07:07:52.820    2 Jan 2026 07:16:42.546           529.726
                      26    2 Jan 2026 08:01:42.981    2 Jan 2026 08:09:41.989           479.008
                      27    2 Jan 2026 08:51:10.637    2 Jan 2026 08:58:35.078           444.442
                      28    2 Jan 2026 09:43:41.002    2 Jan 2026 09:50:45.016           424.014
                      29    2 Jan 2026 10:32:37.002    2 Jan 2026 10:39:34.086           417.085
                      30    2 Jan 2026 11:24:41.837    2 Jan 2026 11:31:44.630           422.793
                      31    2 Jan 2026 12:13:29.688    2 Jan 2026 12:20:51.376           441.688
                      32    2 Jan 2026 13:05:54.658    2 Jan 2026 13:13:49.908           475.251
                      33    2 Jan 2026 13:54:58.683    2 Jan 2026 14:03:42.352           523.669
                      34    2 Jan 2026 14:48:42.233    2 Jan 2026 14:58:27.628           585.395
                      35    2 Jan 2026 15:38:46.721    2 Jan 2026 15:49:28.660           641.939
                      36    2 Jan 2026 16:34:36.671    2 Jan 2026 16:45:40.448           663.776
                      37    2 Jan 2026 17:25:47.490    2 Jan 2026 17:36:21.123           633.633
                      38    2 Jan 2026 18:21:23.458    2 Jan 2026 18:30:55.821           572.363
                      39    2 Jan 2026 19:11:44.344    2 Jan 2026 19:20:18.061           513.717
                      40    2 Jan 2026 20:05:18.952    2 Jan 2026 20:13:06.311           467.359
                      41    2 Jan 2026 20:54:40.253    2 Jan 2026 21:01:57.311           437.058
                      42    2 Jan 2026 21:47:03.766    2 Jan 2026 21:54:04.401           420.635
                      43    2 Jan 2026 22:35:57.293    2 Jan 2026 22:42:54.724           417.431
                      44    2 Jan 2026 23:28:02.045    2 Jan 2026 23:35:09.007           426.962
                      45    3 Jan 2026 00:16:50.385    3 Jan 2026 00:24:20.342           449.957
                      46    3 Jan 2026 01:09:22.590    3 Jan 2026 01:17:30.731           488.141
                      47    3 Jan 2026 01:58:31.866    3 Jan 2026 02:07:32.713           540.847
                      48    3 Jan 2026 02:52:32.978    3 Jan 2026 03:02:37.168           604.189
                      49    3 Jan 2026 03:42:50.107    3 Jan 2026 03:53:44.167           654.060
                      50    3 Jan 2026 04:38:52.553    3 Jan 2026 04:49:52.709           660.156
                      51    3 Jan 2026 05:30:02.364    3 Jan 2026 05:40:20.274           617.910
                      52    3 Jan 2026 06:25:21.227    3 Jan 2026 06:34:35.634           554.407
                      53    3 Jan 2026 07:15:31.147    3 Jan 2026 07:23:50.029           498.881
                      54    3 Jan 2026 08:08:51.573    3 Jan 2026 08:16:28.629           457.056
                      55    3 Jan 2026 08:58:06.806    3 Jan 2026 09:05:17.758           430.953
                      56    3 Jan 2026 09:50:24.677    3 Jan 2026 09:57:23.056           418.379
                      57    3 Jan 2026 10:39:15.972    3 Jan 2026 10:46:14.788           418.816
                      58    3 Jan 2026 11:31:21.579    3 Jan 2026 11:38:33.719           432.139
                      59    3 Jan 2026 12:20:10.860    3 Jan 2026 12:27:50.103           459.243
                      60    3 Jan 2026 13:12:51.385    3 Jan 2026 13:21:13.414           502.029
                      61    3 Jan 2026 14:02:07.054    3 Jan 2026 14:11:25.617           558.563
                      62    3 Jan 2026 14:56:26.648    3 Jan 2026 15:06:48.443           621.795
                      63    3 Jan 2026 15:46:57.029    3 Jan 2026 15:57:59.249           662.219
                      64    3 Jan 2026 16:43:07.464    3 Jan 2026 16:53:59.641           652.176
                      65    3 Jan 2026 17:34:13.978    3 Jan 2026 17:44:14.623           600.645
                      66    3 Jan 2026 18:29:14.583    3 Jan 2026 18:38:11.657           537.074
                      67    3 Jan 2026 19:19:14.735    3 Jan 2026 19:27:19.967           485.232
                      68    3 Jan 2026 20:12:22.253    3 Jan 2026 20:19:50.190           447.938
                      69    3 Jan 2026 21:01:32.502    3 Jan 2026 21:08:38.421           425.919
                      70    3 Jan 2026 21:53:45.658    3 Jan 2026 22:00:42.854           417.196
                      71    3 Jan 2026 22:42:35.394    3 Jan 2026 22:49:36.738           421.344
                      72    3 Jan 2026 23:34:42.848    3 Jan 2026 23:42:01.512           438.664
                      73    4 Jan 2026 00:23:33.714    4 Jan 2026 00:31:23.834           470.120
                      74    4 Jan 2026 01:16:24.238    4 Jan 2026 01:25:01.858           517.621
                      75    4 Jan 2026 02:05:47.416    4 Jan 2026 02:15:24.709           577.294
                      76    4 Jan 2026 03:00:26.873    4 Jan 2026 03:11:04.792           637.918
                      77    4 Jan 2026 03:51:09.570    4 Jan 2026 04:02:15.309           665.739
                      78    4 Jan 2026 04:47:22.677    4 Jan 2026 04:58:02.761           640.083
                      79    4 Jan 2026 05:38:22.124    4 Jan 2026 05:48:04.443           582.319
                      80    4 Jan 2026 06:33:03.810    4 Jan 2026 06:41:44.368           520.557
                      81    4 Jan 2026 07:22:54.131    4 Jan 2026 07:30:47.057           472.927
                      82    4 Jan 2026 08:15:50.179    4 Jan 2026 08:23:10.291           440.112
                      83    4 Jan 2026 09:04:55.679    4 Jan 2026 09:11:57.751           422.071
                      84    4 Jan 2026 09:57:05.218    4 Jan 2026 10:00:00.000           174.782

Statistics
----------
Min Duration          84    4 Jan 2026 09:57:05.218    4 Jan 2026 10:00:00.000           174.782
Max Duration          77    4 Jan 2026 03:51:09.570    4 Jan 2026 04:02:15.309           665.739
Mean Duration                                                                            512.675
Total Duration                                                                         43064.692

Global Statistics
-----------------
Min Duration          84    4 Jan 2026 09:57:05.218    4 Jan 2026 10:00:00.000           174.782
Max Duration           7    1 Jan 2026 15:41:58.546    1 Jan 2026 15:54:38.511           759.965
Mean Duration                                                                            526.129
Total Duration                                                                        132058.376
