Simulation/Communication/old/Inmarsat1old.txt

                                                                             5 Jul 2024 09:21:31
Satellite-NOVASAT-16U-Sensor-LargeAngle-To-Satellite-Inmarsat3F2_24307:  Access Summary Report


LargeAngle-To-Inmarsat3F2_24307
-------------------------------
                  Access       Start Time (UTCG)           Stop Time (UTCG)       Duration (sec)
                  ------    -----------------------    -----------------------    --------------
                       1    1 Jan 2026 10:34:55.644    1 Jan 2026 11:05:52.332          1856.689
                       2    1 Jan 2026 12:18:37.578    1 Jan 2026 12:50:44.548          1926.970
                       3    1 Jan 2026 14:04:14.483    1 Jan 2026 14:36:19.203          1924.721
                       4    1 Jan 2026 15:49:26.701    1 Jan 2026 16:20:20.040          1853.339
                       5    1 Jan 2026 17:32:41.784    1 Jan 2026 18:02:40.416          1798.632
                       6    1 Jan 2026 19:14:35.796    1 Jan 2026 19:44:18.606          1782.809
                       7    1 Jan 2026 20:56:07.489    1 Jan 2026 21:26:13.413          1805.924
                       8    1 Jan 2026 22:38:18.034    1 Jan 2026 23:09:25.842          1867.808
                       9    2 Jan 2026 00:22:17.192    2 Jan 2026 00:54:33.013          1935.821
                      10    2 Jan 2026 02:08:03.951    2 Jan 2026 02:40:03.261          1919.311
                      11    2 Jan 2026 03:53:03.641    2 Jan 2026 04:23:48.148          1844.508
                      12    2 Jan 2026 05:36:04.080    2 Jan 2026 06:05:57.970          1793.890
                      13    2 Jan 2026 07:17:50.399    2 Jan 2026 07:47:33.531          1783.132
                      14    2 Jan 2026 08:59:22.099    2 Jan 2026 09:29:34.206          1812.106
                      15    2 Jan 2026 10:41:42.593    2 Jan 2026 11:13:02.537          1879.945
                      16    2 Jan 2026 12:26:02.307    2 Jan 2026 12:58:25.953          1943.647
                      17    2 Jan 2026 14:11:57.765    2 Jan 2026 14:43:49.717          1911.952
                      18    2 Jan 2026 15:56:42.721    2 Jan 2026 16:27:18.002          1835.281
                      19    2 Jan 2026 17:39:27.964    2 Jan 2026 18:09:17.441          1789.477
                      20    2 Jan 2026 19:21:06.442    2 Jan 2026 19:50:50.624          1784.182
                      21    2 Jan 2026 21:02:38.187    2 Jan 2026 21:32:57.469          1819.282
                      22    2 Jan 2026 22:45:08.826    2 Jan 2026 23:16:41.277          1892.452
                      23    3 Jan 2026 00:29:47.545    3 Jan 2026 01:02:16.814          1949.269
                      24    3 Jan 2026 02:15:46.341    3 Jan 2026 02:47:30.098          1903.757
                      25    3 Jan 2026 04:00:15.431    3 Jan 2026 04:30:42.504          1827.074
                      26    3 Jan 2026 05:42:47.334    3 Jan 2026 06:12:33.346          1786.012
                      27    3 Jan 2026 07:24:19.963    3 Jan 2026 07:54:05.946          1785.983
                      28    3 Jan 2026 09:05:53.919    3 Jan 2026 09:36:21.310          1827.392
                      29    3 Jan 2026 10:48:37.902    3 Jan 2026 11:20:23.634          1905.732
                      30    3 Jan 2026 12:33:38.318    3 Jan 2026 13:06:11.372          1953.053
                      31    3 Jan 2026 14:19:38.243    3 Jan 2026 14:51:12.286          1894.044
                      32    3 Jan 2026 16:03:49.968    3 Jan 2026 16:34:08.726          1818.758
                      33    3 Jan 2026 17:46:08.299    3 Jan 2026 18:15:51.305          1783.006
                      34    3 Jan 2026 19:27:35.069    3 Jan 2026 19:57:23.714          1788.645
                      35    3 Jan 2026 21:09:11.427    3 Jan 2026 21:39:48.021          1836.594
                      36    3 Jan 2026 22:52:09.029    3 Jan 2026 23:24:07.953          1918.923
                      37    4 Jan 2026 00:37:28.417    4 Jan 2026 01:10:02.642          1954.225
                      38    4 Jan 2026 02:23:24.123    4 Jan 2026 02:54:48.382          1884.259
                      39    4 Jan 2026 04:07:18.536    4 Jan 2026 04:37:30.078          1811.542
                      40    4 Jan 2026 05:49:25.210    4 Jan 2026 06:19:06.081          1780.871
                      41    4 Jan 2026 07:30:48.010    4 Jan 2026 08:00:40.042          1792.032
                      42    4 Jan 2026 09:12:29.028    4 Jan 2026 09:43:15.799          1846.772

Statistics
----------
Min Duration          40    4 Jan 2026 05:49:25.210    4 Jan 2026 06:19:06.081          1780.871
Max Duration          37    4 Jan 2026 00:37:28.417    4 Jan 2026 01:10:02.642          1954.225
Mean Duration                                                                           1852.615
Total Duration                                                                         77809.818
